<<< New Epoch [353] >>>
16:25:21  $GNRMC,162521.00,A,0438.09178,N,07404.10137,W,0.446,,311019,,,A,V*03
16:25:21  $GNVTG,,T,,M,0.446,N,0.827,K,A*36
16:25:21  $GNGGA,162521.00,0438.09178,N,07404.10137,W,1,12,0.73,2609.5,M,4.7,M,,*54
16:25:21  $GNGSA,A,3,13,29,25,15,12,24,02,,,,,,1.31,0.73,1.09,1*03
16:25:21  $GNGSA,A,3,69,79,78,82,83,,,,,,,,1.31,0.73,1.09,2*02
16:25:21  $GNGSA,A,3,,,,,,,,,,,,,1.31,0.73,1.09,3*0C
16:25:21  $GNGSA,A,3,29,36,35,22,19,,,,,,,,1.31,0.73,1.09,4*0B
16:25:21  $GPGSV,3,1,11,02,34,116,30,05,14,048,22,12,15,175,25,13,27,026,18,1*63
16:25:21  $GPGSV,3,2,11,15,54,355,26,20,08,300,,21,12,330,22,24,51,157,23,1*6E
16:25:21  $GPGSV,3,3,11,25,13,217,26,29,57,273,37,32,01,224,,1*5E
16:25:21  $GPGSV,3,1,11,02,34,116,,05,14,048,,12,15,175,,13,27,026,,6*69
16:25:21  $GPGSV,3,2,11,15,54,355,22,20,08,300,,21,12,330,,24,51,157,29,6*67
16:25:21  $GPGSV,3,3,11,25,13,217,,29,57,273,19,32,01,224,,6*51
16:25:21  $GLGSV,3,1,10,68,21,359,,69,31,304,15,70,07,250,,78,13,093,20,1*75
16:25:21  $GLGSV,3,2,10,79,19,144,29,80,03,193,,81,08,155,09,82,58,153,28,1*77
16:25:21  $GLGSV,3,3,10,83,67,343,10,84,09,337,,1*74
16:25:21  $GLGSV,3,1,10,68,21,359,,69,31,304,,70,07,250,,78,13,093,,3*71
16:25:21  $GLGSV,3,2,10,79,19,144,18,80,03,193,,81,08,155,,82,58,153,22,3*74
16:25:21  $GLGSV,3,3,10,83,67,343,19,84,09,337,,3*7F
16:25:21  $GAGSV,1,1,00,7*73
16:25:21  $GAGSV,1,1,00,2*76
16:25:21  $GBGSV,2,1,08,12,13,323,,19,26,011,17,21,07,265,,22,31,311,21,1*73
16:25:21  $GBGSV,2,2,08,29,56,165,35,30,06,149,,35,62,300,39,36,35,137,33,1*76
16:25:21  $GBGSV,2,1,08,12,13,323,,19,26,011,,21,07,265,,22,31,311,,3*74
16:25:21  $GBGSV,2,2,08,29,56,165,,30,06,149,,35,62,300,,36,35,137,,3*78
16:25:21  $GNGLL,0438.09178,N,07404.10137,W,162521.00,A,A*6D
<<< New Epoch [354] >>>
16:25:22  $GNRMC,162522.00,A,0438.09176,N,07404.10139,W,0.052,,311019,,,A,V*01
16:25:22  $GNVTG,,T,,M,0.052,N,0.097,K,A*34
16:25:22  $GNGGA,162522.00,0438.09176,N,07404.10139,W,1,12,0.73,2609.5,M,4.7,M,,*57
16:25:22  $GNGSA,A,3,13,29,25,15,12,24,02,,,,,,1.31,0.73,1.09,1*03
16:25:22  $GNGSA,A,3,69,79,78,82,83,,,,,,,,1.31,0.73,1.09,2*02
16:25:22  $GNGSA,A,3,,,,,,,,,,,,,1.31,0.73,1.09,3*0C
16:25:22  $GNGSA,A,3,29,36,35,22,19,,,,,,,,1.31,0.73,1.09,4*0B
16:25:22  $GPGSV,3,1,11,02,34,116,30,05,14,048,18,12,15,175,26,13,27,026,17,1*66
16:25:22  $GPGSV,3,2,11,15,54,355,29,20,08,300,,21,12,330,19,24,51,157,24,1*6E
16:25:22  $GPGSV,3,3,11,25,13,217,26,29,57,273,37,32,01,224,,1*5E
16:25:22  $GPGSV,3,1,11,02,34,116,,05,14,048,,12,15,175,,13,27,026,,6*69
16:25:22  $GPGSV,3,2,11,15,54,355,22,20,08,300,,21,12,330,,24,51,157,29,6*67
16:25:22  $GPGSV,3,3,11,25,13,217,,29,57,273,19,32,01,224,,6*51
16:25:22  $GLGSV,3,1,10,68,21,359,,69,31,304,16,70,07,250,,78,13,093,20,1*76
16:25:22  $GLGSV,3,2,10,79,19,144,30,80,03,193,,81,08,155,10,82,58,153,28,1*77
16:25:22  $GLGSV,3,3,10,83,67,343,15,84,09,337,,1*71
16:25:22  $GLGSV,3,1,10,68,21,359,,69,31,304,,70,07,250,,78,13,093,,3*71
16:25:22  $GLGSV,3,2,10,79,19,144,19,80,03,193,,81,08,155,,82,58,153,22,3*75
16:25:22  $GLGSV,3,3,10,83,67,343,18,84,09,337,,3*7E
16:25:22  $GAGSV,1,1,00,7*73
16:25:22  $GAGSV,1,1,00,2*76
16:25:22  $GBGSV,2,1,08,12,13,323,,19,26,011,18,21,07,265,,22,31,311,22,1*7F
16:25:22  $GBGSV,2,2,08,29,56,165,35,30,06,149,,35,62,300,39,36,35,137,33,1*76
16:25:22  $GBGSV,2,1,08,12,13,323,,19,26,011,,21,07,265,,22,31,311,,3*74
16:25:22  $GBGSV,2,2,08,29,56,165,,30,06,149,,35,62,300,,36,35,137,,3*78
16:25:22  $GNGLL,0438.09176,N,07404.10139,W,162522.00,A,A*6E
<<< New Epoch [355] >>>
16:25:23  $GNRMC,162523.00,A,0438.09181,N,07404.10138,W,0.088,,311019,,,A,V*0E
16:25:23  $GNVTG,,T,,M,0.088,N,0.162,K,A*38
16:25:23  $GNGGA,162523.00,0438.09181,N,07404.10138,W,1,12,0.73,2609.5,M,4.7,M,,*5F
16:25:23  $GNGSA,A,3,13,29,25,15,12,24,02,,,,,,1.31,0.73,1.09,1*03
16:25:23  $GNGSA,A,3,69,79,78,82,83,,,,,,,,1.31,0.73,1.09,2*02
16:25:23  $GNGSA,A,3,,,,,,,,,,,,,1.31,0.73,1.09,3*0C
16:25:23  $GNGSA,A,3,29,36,35,22,19,,,,,,,,1.31,0.73,1.09,4*0B
16:25:23  $GPGSV,3,1,11,02,34,116,31,05,14,048,15,12,15,175,26,13,27,026,17,1*6A
16:25:23  $GPGSV,3,2,11,15,54,355,31,20,08,300,,21,12,330,15,24,51,157,24,1*6B
16:25:23  $GPGSV,3,3,11,25,13,217,27,29,57,273,38,32,01,224,,1*50
16:25:23  $GPGSV,3,1,11,02,34,116,,05,14,048,,12,15,175,,13,27,026,,6*69
16:25:23  $GPGSV,3,2,11,15,54,355,21,20,08,300,,21,12,330,,24,51,157,29,6*64
16:25:23  $GPGSV,3,3,11,25,13,217,,29,57,273,18,32,01,224,,6*50
16:25:23  $GLGSV,3,1,10,68,21,359,,69,31,304,17,70,07,250,,78,13,093,21,1*76
16:25:23  $GLGSV,3,2,10,79,19,144,30,80,03,193,,81,08,155,08,82,58,153,28,1*7E
16:25:23  $GLGSV,3,3,10,83,67,343,14,84,09,337,,1*70
16:25:23  $GLGSV,3,1,10,68,21,359,,69,31,304,,70,07,250,,78,13,093,,3*71
16:25:23  $GLGSV,3,2,10,79,19,144,19,80,03,193,,81,08,155,,82,58,153,22,3*75
16:25:23  $GLGSV,3,3,10,83,67,343,18,84,09,337,,3*7E
16:25:23  $GAGSV,1,1,00,7*73
16:25:23  $GAGSV,1,1,00,2*76
16:25:23  $GBGSV,2,1,08,12,13,323,,19,26,011,19,21,07,265,,22,31,311,22,1*7E
16:25:23  $GBGSV,2,2,08,29,56,165,34,30,06,149,,35,62,300,39,36,35,137,33,1*77
16:25:23  $GBGSV,2,1,08,12,13,323,,19,26,011,,21,07,265,,22,31,311,,3*74
16:25:23  $GBGSV,2,2,08,29,56,165,,30,06,149,,35,62,300,,36,35,137,,3*78
16:25:23  $GNGLL,0438.09181,N,07404.10138,W,162523.00,A,A*66
<<< New Epoch [356] >>>
16:25:24  $GNRMC,162524.00,A,0438.09185,N,07404.10138,W,0.043,,311019,,,A,V*0A
16:25:24  $GNVTG,,T,,M,0.043,N,0.079,K,A*34
16:25:24  $GNGGA,162524.00,0438.09185,N,07404.10138,W,1,12,0.73,2609.3,M,4.7,M,,*5A
16:25:24  $GNGSA,A,3,13,29,25,15,12,24,02,,,,,,1.31,0.73,1.09,1*03
16:25:24  $GNGSA,A,3,69,79,78,82,83,,,,,,,,1.31,0.73,1.09,2*02
16:25:24  $GNGSA,A,3,,,,,,,,,,,,,1.31,0.73,1.09,3*0C
16:25:24  $GNGSA,A,3,29,36,35,22,19,,,,,,,,1.31,0.73,1.09,4*0B
16:25:24  $GPGSV,3,1,11,02,34,116,32,05,14,048,10,12,15,175,27,13,27,026,15,1*6F
16:25:24  $GPGSV,3,2,11,15,54,355,31,20,08,300,,21,12,330,14,24,51,157,24,1*6A
16:25:24  $GPGSV,3,3,11,25,13,217,28,29,57,273,40,32,01,224,,1*50
16:25:24  $GPGSV,3,1,11,02,34,116,,05,14,048,,12,15,175,,13,27,026,,6*69
16:25:24  $GPGSV,3,2,11,15,54,355,21,20,08,300,,21,12,330,,24,51,157,29,6*64
16:25:24  $GPGSV,3,3,11,25,13,217,,29,57,273,18,32,01,224,,6*50
16:25:24  $GLGSV,3,1,10,68,21,359,,69,31,304,17,70,07,250,,78,13,093,21,1*76
16:25:24  $GLGSV,3,2,10,79,19,144,30,80,03,193,,81,08,155,08,82,58,153,28,1*7E
16:25:24  $GLGSV,3,3,10,83,67,343,13,84,09,337,,1*77
16:25:24  $GLGSV,3,1,10,68,21,359,,69,31,304,,70,07,250,,78,13,093,,3*71
16:25:24  $GLGSV,3,2,10,79,19,144,19,80,03,193,,81,08,155,,82,58,153,23,3*74
16:25:24  $GLGSV,3,3,10,83,67,343,18,84,09,337,,3*7E
16:25:24  $GAGSV,1,1,00,7*73
16:25:24  $GAGSV,1,1,00,2*76
16:25:24  $GBGSV,2,1,08,12,13,323,,19,26,011,19,21,07,265,,22,31,311,22,1*7E
16:25:24  $GBGSV,2,2,08,29,56,165,35,30,06,149,,35,62,300,39,36,35,137,34,1*71
16:25:24  $GBGSV,2,1,08,12,13,323,,19,26,011,,21,07,265,,22,31,311,,3*74
16:25:24  $GBGSV,2,2,08,29,56,165,,30,06,149,,35,62,300,,36,35,137,,3*78
16:25:24  $GNGLL,0438.09185,N,07404.10138,W,162524.00,A,A*65
<<< New Epoch [357] >>>
msg = pynmea2.parse("$GNGGA,162525.00,0438.09189,N,07404.10139,W,1,12,0.73,2609.1,M,4.7,M,,*54")

16:25:25  $GNRMC,162525.00,A,0438.09189,N,07404.10139,W,0.012,,311019,,,A,V*02
16:25:25  $GNVTG,,T,,M,0.012,N,0.023,K,A*3F
16:25:25  $GNGGA,162525.00,0438.09189,N,07404.10139,W,1,12,0.73,2609.1,M,4.7,M,,*54
16:25:25  $GNGSA,A,3,13,29,25,15,12,24,02,,,,,,1.31,0.73,1.09,1*03
16:25:25  $GNGSA,A,3,69,79,78,82,83,,,,,,,,1.31,0.73,1.09,2*02
16:25:25  $GNGSA,A,3,,,,,,,,,,,,,1.31,0.73,1.09,3*0C
16:25:25  $GNGSA,A,3,29,36,35,22,19,,,,,,,,1.31,0.73,1.09,4*0B
16:25:25  $GPGSV,3,1,11,02,33,116,33,05,14,048,10,12,15,175,28,13,27,026,15,1*66
16:25:25  $GPGSV,3,2,11,15,54,355,30,20,08,300,,21,12,330,14,24,51,157,22,1*6D
16:25:25  $GPGSV,3,3,11,25,13,217,29,29,57,273,39,32,01,224,,1*5F
16:25:25  $GPGSV,3,1,11,02,33,116,,05,14,048,,12,15,175,,13,27,026,,6*6E
16:25:25  $GPGSV,3,2,11,15,54,355,21,20,08,300,,21,12,330,,24,51,157,29,6*64
16:25:25  $GPGSV,3,3,11,25,13,217,,29,57,273,19,32,01,224,,6*51
16:25:25  $GLGSV,3,1,10,68,21,359,,69,31,304,17,70,07,250,,78,13,093,21,1*76
16:25:25  $GLGSV,3,2,10,79,19,144,29,80,03,193,,81,08,155,08,82,58,153,27,1*79
16:25:25  $GLGSV,3,3,10,83,67,343,17,84,09,337,,1*73
16:25:25  $GLGSV,3,1,10,68,21,359,,69,31,304,,70,07,250,,78,13,093,,3*71
16:25:25  $GLGSV,3,2,10,79,19,144,19,80,03,193,,81,08,155,,82,58,153,22,3*75
16:25:25  $GLGSV,3,3,10,83,67,343,17,84,09,337,,3*71
16:25:25  $GAGSV,1,1,00,7*73
16:25:25  $GAGSV,1,1,00,2*76
16:25:25  $GBGSV,2,1,08,12,13,323,,19,26,011,18,21,07,265,,22,31,311,21,1*7C
16:25:25  $GBGSV,2,2,08,29,56,165,34,30,06,149,,35,62,300,39,36,35,137,33,1*77
16:25:25  $GBGSV,2,1,08,12,13,323,,19,26,011,,21,07,265,,22,31,311,,3*74
16:25:25  $GBGSV,2,2,08,29,56,165,,30,06,149,,35,62,300,,36,35,137,,3*78
16:25:25  $GNGLL,0438.09189,N,07404.10139,W,162525.00,A,A*69