3,0,240,0,0,0.000000,-109,255_$GNGGA,013832.00,0438.09194,N,07404.10096,W,1,12,0.58,2596.8,M,4.7,M,,*55_
3,0,240,0,0,0.000000,-113,5_$GNGGA,013746.00,0438.09127,N,07404.09977,W,1,12,0.60,2598.7,M,4.7,M,,*55_
3,0,240,0,0,0.000000,-114,5_$GNGGA,013704.00,0438.09129,N,07404.10007,W,1,12,0.60,2598.4,M,4.7,M,,*58_
3,0,240,0,0,0.000000,-116,5_$GNGGA,013616.00,0438.09148,N,07404.09996,W,1,12,0.61,2598.9,M,4.7,M,,*58_
3,0,240,0,0,0.000000,-115,5_$GNGGA,013531.00,0438.09141,N,07404.10013,W,1,12,0.63,2599.0,M,4.7,M,,*51_
3,0,240,0,0,0.000000,-113,5_$GNGGA,013443.00,0438.09069,N,07404.10150,W,1,12,0.66,2600.9,M,4.7,M,,*57_
3,0,240,0,0,0.000000,-114,5_$GNGGA,013358.00,0438.09050,N,07404.10151,W,1,12,0.66,2602.7,M,4.7,M,,*5D_
3,0,240,0,0,0.000000,-114,5_$GNGGA,013312.00,0438.09124,N,07404.10169,W,1,12,0.66,2600.1,M,4.7,M,,*5E_
3,0,240,0,0,0.000000,-114,5_$GNGGA,013226.00,0438.09156,N,07404.10207,W,1,12,0.66,2599.4,M,4.7,M,,*50_
3,0,240,0,0,0.000000,-114,5_$GNGGA,013145.00,0438.09152,N,07404.10208,W,1,12,0.60,2599.8,M,4.7,M,,*57_
3,0,240,0,0,0.000000,-115,5_$GNGGA,013058.00,0438.09200,N,07404.10197,W,1,12,0.68,2599.8,M,4.7,M,,*53_
3,0,240,0,0,0.000000,-115,5_$GNGGA,013016.00,0438.09162,N,07404.10086,W,1,12,0.60,2599.3,M,4.7,M,,*5C_
3,0,240,0,0,0.000000,-115,5_$GNGGA,012930.00,0438.09143,N,07404.10037,W,1,12,0.57,2599.8,M,4.7,M,,*56_
3,0,240,0,0,0.000000,-113,5_$GNGGA,012845.00,0438.09188,N,07404.10011,W,1,12,0.57,2599.3,M,4.7,M,,*5D_
3,0,240,0,0,0.000000,-114,5_$GNGGA,012800.00,0438.09160,N,07404.10015,W,1,12,0.68,2599.8,M,4.7,M,,*59_
3,0,240,0,0,0.000000,-114,5_$GNGGA,012715.00,0438.09127,N,07404.10053,W,1,12,0.57,2601.5,M,4.7,M,,*50_
3,0,240,0,0,0.000000,-115,5_$GNGGA,012628.00,0438.09112,N,07404.10062,W,1,12,0.59,2602.3,M,4.7,M,,*50_
3,0,240,0,0,0.000000,-115,5_$GNGGA,012542.00,0438.09094,N,07404.10074,W,1,12,0.56,2602.3,M,4.7,M,,*58_
3,0,240,0,0,0.000000,-114,5_$GNGGA,012456.00,0438.09024,N,07404.10069,W,1,12,0.56,2603.8,M,4.7,M,,*51_
3,0,240,0,0,0.000000,-114,5_$GNGGA,012410.00,0438.08990,N,07404.10116,W,1,12,0.56,2605.7,M,4.7,M,,*54_
3,0,240,0,0,0.000000,-115,5_$GNGGA,012329.00,0438.09021,N,07404.10109,W,1,12,0.58,2604.0,M,4.7,M,,*5D_
3,0,240,0,0,0.000000,-109,255_$GNGGA,012247.00,0438.09046,N,07404.10055,W,1,12,0.57,2603.6,M,4.7,M,,*53_
3,0,240,0,0,0.000000,-116,5_$GNGGA,012211.00,0438.09058,N,07404.10050,W,1,12,0.57,2603.1,M,4.7,M,,*5D_
3,0,240,0,0,0.000000,-114,5_$GNGGA,012126.00,0438.09023,N,07404.10039,W,1,12,0.58,2604.1,M,4.7,M,,*51_
3,0,240,0,0,0.000000,-108,255_$GNGGA,012044.00,0438.08958,N,07404.09984,W,1,12,0.60,2606.2,M,4.7,M,,*5D_
3,0,240,0,0,0.000000,-116,5_$GNGGA,012002.00,0438.08983,N,07404.10026,W,1,12,0.59,2607.3,M,4.7,M,,*5A_
3,0,240,0,0,0.000000,-115,5_$GNGGA,011917.00,0438.09001,N,07404.10017,W,1,12,0.63,2607.0,M,4.7,M,,*5E_
3,0,240,0,0,0.000000,-115,5_$GNGGA,011832.00,0438.08996,N,07404.10013,W,1,12,0.61,2607.4,M,4.7,M,,*5C_
3,0,240,0,0,0.000000,-113,5_$GNGGA,011745.00,0438.09002,N,07404.10064,W,1,12,0.60,2609.0,M,4.7,M,,*5D_
3,0,240,0,0,0.000000,-116,5_$GNGGA,011658.00,0438.09081,N,07404.10070,W,1,12,0.57,2605.0,M,4.7,M,,*56_
3,0,240,0,0,0.000000,-114,5_$GNGGA,011613.00,0438.08991,N,07404.10133,W,1,12,0.57,2609.9,M,4.7,M,,*53_
3,0,240,0,0,0.000000,-114,5_$GNGGA,011527.00,0438.09015,N,07404.10089,W,1,12,0.61,2609.2,M,4.7,M,,*5D_
3,0,240,0,0,0.000000,-114,5_$GNGGA,011439.00,0438.09008,N,07404.10050,W,1,12,0.56,2608.4,M,4.7,M,,*58_
3,0,240,0,0,0.000000,-116,5_$GNGGA,011352.00,0438.09019,N,07404.10052,W,1,12,0.56,2606.9,M,4.7,M,,*53_
3,0,240,0,0,0.000000,-115,5_$GNGGA,011308.00,0438.09012,N,07404.10095,W,1,12,0.56,2606.9,M,4.7,M,,*5C_
3,0,240,0,0,0.000000,-113,5_$GNGGA,011223.00,0438.09070,N,07404.10063,W,1,12,0.57,2606.4,M,4.7,M,,*55_
3,0,240,0,0,0.000000,-115,5_$GNGGA,011137.00,0438.09004,N,07404.09993,W,1,12,0.56,2608.3,M,4.7,M,,*56_
3,0,240,0,0,0.000000,-113,5_$GNGGA,011051.00,0438.09037,N,07404.09930,W,1,12,0.57,2607.3,M,4.7,M,,*50_
3,0,240,0,0,0.000000,-116,5_$GNGGA,011004.00,0438.09031,N,07404.09958,W,1,12,0.57,2606.2,M,4.7,M,,*58_
3,0,240,0,0,0.000000,-114,5_$GNGGA,010917.00,0438.09102,N,07404.09920,W,1,12,0.62,2602.7,M,4.7,M,,*5B_
3,0,240,0,0,0.000000,-115,5_$GNGGA,010831.00,0438.09161,N,07404.09959,W,1,12,0.56,2601.7,M,4.7,M,,*51_
3,0,240,0,0,0.000000,-114,5_$GNGGA,010745.00,0438.09139,N,07404.09969,W,1,12,0.57,2603.3,M,4.7,M,,*54_
3,0,240,0,0,0.000000,-113,5_$GNGGA,010659.00,0438.09139,N,07404.09946,W,1,12,0.53,2602.7,M,4.7,M,,*54_
3,0,240,0,0,0.000000,-115,5_$GNGGA,010613.00,0438.09128,N,07404.09973,W,1,12,0.56,2603.5,M,4.7,M,,*5A_
3,0,240,0,0,0.000000,-114,5_$GNGGA,010525.00,0438.09041,N,07404.09971,W,1,12,0.54,2607.3,M,4.7,M,,*50_
3,0,240,0,0,0.000000,-114,5_$GNGGA,010439.00,0438.09126,N,07404.09992,W,1,12,0.51,2603.8,M,4.7,M,,*5B_
3,0,240,0,0,0.000000,-114,5_$GNGGA,010353.00,0438.09173,N,07404.10013,W,1,12,0.52,2602.0,M,4.7,M,,*52_
3,0,240,0,0,0.000000,-115,5_$GNGGA,010308.00,0438.09084,N,07404.10039,W,1,12,0.53,2606.4,M,4.7,M,,*5C_
3,0,240,0,0,0.000000,-114,5_$GNGGA,010222.00,0438.09127,N,07404.09988,W,1,12,0.52,2605.3,M,4.7,M,,*53_
3,0,240,0,0,0.000000,-114,5_$GNGGA,010135.00,0438.09039,N,07404.10047,W,1,12,0.54,2608.8,M,4.7,M,,*5A_
3,0,240,0,0,0.000000,-114,5_$GNGGA,010049.00,0438.08992,N,07404.10139,W,1,12,0.50,2609.8,M,4.7,M,,*54_
3,0,240,0,0,0.000000,-115,5_$GNGGA,010002.00,0438.09019,N,07404.10141,W,1,12,0.53,2608.7,M,4.7,M,,*52_
3,0,240,0,0,0.000000,-116,5_$GNGGA,005915.00,0438.09052,N,07404.10078,W,1,12,0.54,2607.4,M,4.7,M,,*56_
3,0,240,0,0,0.000000,-113,5_$GNGGA,005827.00,0438.09076,N,07404.10084,W,1,12,0.57,2606.8,M,4.7,M,,*5D_
3,0,240,0,0,0.000000,-113,5_$GNGGA,005745.00,0438.09100,N,07404.10103,W,1,12,0.56,2604.8,M,4.7,M,,*5B_
3,0,240,0,0,0.000000,-114,5_$GNGGA,005704.00,0438.09049,N,07404.10086,W,1,12,0.63,2605.5,M,4.7,M,,*54_
3,0,240,0,0,0.000000,-115,5_$GNGGA,005623.00,0438.09043,N,07404.10121,W,1,12,0.52,2606.4,M,4.7,M,,*56_
3,0,240,0,0,0.000000,-113,5_$GNGGA,005536.00,0438.09060,N,07404.10173,W,1,12,0.55,2606.0,M,4.7,M,,*54_
3,0,240,0,0,0.000000,-116,5_$GNGGA,005450.00,0438.09033,N,07404.10246,W,1,12,0.51,2606.9,M,4.7,M,,*5B_
3,0,240,0,0,0.000000,-115,5_$GNGGA,005405.00,0438.08986,N,07404.10317,W,1,12,0.54,2609.8,M,4.7,M,,*53_
3,0,240,0,0,0.000000,-115,5_$GNGGA,005317.00,0438.08973,N,07404.10333,W,1,12,0.53,2611.8,M,4.7,M,,*55_
3,0,240,0,0,0.000000,-114,5_$GNGGA,005229.00,0438.09014,N,07404.10293,W,1,12,0.55,2611.3,M,4.7,M,,*56_
3,0,240,0,0,0.000000,-116,5_$GNGGA,005142.00,0438.08941,N,07404.10316,W,1,12,0.56,2613.8,M,4.7,M,,*56_
3,0,240,0,0,0.000000,-115,5_$GNGGA,005058.00,0438.09037,N,07404.10205,W,1,12,0.55,2609.5,M,4.7,M,,*53_
3,0,240,0,0,0.000000,-115,5_$GNGGA,005010.00,0438.09093,N,07404.10220,W,1,12,0.54,2607.3,M,4.7,M,,*5F_
3,0,240,0,0,0.000000,-114,5_$GNGGA,004924.00,0438.09104,N,07404.10177,W,1,12,0.54,2605.9,M,4.7,M,,*56_
3,0,240,0,0,0.000000,-114,5_$GNGGA,004836.00,0438.09142,N,07404.10201,W,1,12,0.54,2605.1,M,4.7,M,,*5C_
3,0,240,0,0,0.000000,-115,5_$GNGGA,004750.00,0438.09185,N,07404.10164,W,1,12,0.55,2605.5,M,4.7,M,,*5D_
3,0,240,0,0,0.000000,-108,255_$GNGGA,004704.00,0438.09192,N,07404.10187,W,1,12,0.52,2606.8,M,4.7,M,,*5E_
3,0,240,0,0,0.000000,-108,255_$GNGGA,004623.00,0438.09136,N,07404.10243,W,1,12,0.52,2611.0,M,4.7,M,,*51_
3,0,240,0,0,0.000000,-115,5_$GNGGA,004542.00,0438.09094,N,07404.10273,W,1,12,0.52,2617.0,M,4.7,M,,*59_
3,0,240,0,0,0.000000,-115,5_$GNGGA,004455.00,0438.09015,N,07404.10222,W,1,12,0.52,2621.8,M,4.7,M,,*5E_
3,0,240,0,0,0.000000,-114,5_$GNGGA,004407.00,0438.09038,N,07404.10264,W,1,12,0.51,2620.2,M,4.7,M,,*5C_
3,0,240,0,0,0.000000,-114,5_$GNGGA,004320.00,0438.09028,N,07404.10224,W,1,12,0.53,2619.6,M,4.7,M,,*57_
3,0,0,0,0,0,0,0_$ 
