3,2,240,0,0,0.000000,-106,5_$GNGGA,022430.00,0438.09591,N,07404.10061,W,1,11,0.97,2629.9,M,4.7,M,,*56_
3,2,240,0,0,0.000000,-107,5_$GNGGA,022348.00,0438.09566,N,07404.10219,W,1,11,0.97,2623.0,M,4.7,M,,*58_
3,2,240,0,0,0.000000,-108,5_$GNGGA,022310.00,0438.09504,N,07404.10322,W,1,11,0.97,2613.1,M,4.7,M,,*5A_
3,2,240,0,0,0.000000,-106,5_$GNGGA,022232.00,0438.09622,N,07404.10303,W,1,11,0.97,2613.9,M,4.7,M,,*57_
3,2,240,0,0,0.000000,-104,5_$GNGGA,022149.00,0438.09699,N,07404.10462,W,1,11,0.96,2595.1,M,4.7,M,,*5C_
3,2,240,0,0,0.000000,-106,5_$GNGGA,022106.00,0438.09548,N,07404.10372,W,1,10,1.00,2597.9,M,4.7,M,,*5B_
3,2,240,0,0,0.000000,-107,5_$GNGGA,022027.00,0438.09289,N,07404.10240,W,1,11,0.96,2606.8,M,4.7,M,,*56_
3,2,240,0,0,0.000000,-108,5_$GNGGA,021945.00,0438.09129,N,07404.10271,W,1,11,0.96,2616.1,M,4.7,M,,*5B_
3,2,240,0,0,0.000000,-108,5_$GNGGA,021901.00,0438.09029,N,07404.10514,W,1,11,0.93,2610.6,M,4.7,M,,*5A_
3,2,240,0,0,0.000000,-93,255_$GNGGA,021818.00,0438.09388,N,07404.09869,W,1,10,0.97,2612.6,M,4.7,M,,*53_
3,2,240,0,0,0.000000,-106,5_$GNGGA,021801.00,0438.09541,N,07404.09757,W,1,12,0.92,2604.8,M,4.7,M,,*54_
3,2,240,0,0,0.000000,-102,5_$GNGGA,021722.00,0438.09500,N,07404.10065,W,1,12,0.97,2599.4,M,4.7,M,,*5F_
3,2,240,0,0,0.000000,-106,5_$GNGGA,021644.00,0438.09542,N,07404.10351,W,1,10,0.97,2613.7,M,4.7,M,,*5C_
3,2,240,0,0,0.000000,-106,5_$GNGGA,021601.00,0438.09547,N,07404.10199,W,1,12,0.92,2612.0,M,4.7,M,,*5F_
3,2,240,0,0,0.000000,-109,5_$GNGGA,021522.00,0438.09445,N,07404.10135,W,1,11,0.96,2612.4,M,4.7,M,,*5B_
3,2,240,0,0,0.000000,-108,5_$GNGGA,021440.00,0438.09403,N,07404.10034,W,1,12,0.91,2623.9,M,4.7,M,,*57_
3,2,240,0,0,0.000000,-106,5_$GNGGA,021357.00,0438.09324,N,07404.10345,W,1,11,0.91,2621.7,M,4.7,M,,*5E_
3,2,240,0,0,0.000000,-106,5_$GNGGA,021318.00,0438.09360,N,07404.10354,W,1,11,0.91,2614.9,M,4.7,M,,*5D_
3,2,240,0,0,0.000000,-106,5_$GNGGA,021236.00,0438.09447,N,07404.10353,W,1,11,0.96,2608.9,M,4.7,M,,*5F_
3,2,240,0,0,0.000000,-107,5_$GNGGA,021157.00,0438.09500,N,07404.10310,W,1,11,0.96,2617.0,M,4.7,M,,*59_
3,2,240,0,0,0.000000,-105,5_$GNGGA,021115.00,0438.09735,N,07404.10199,W,1,10,0.95,2621.6,M,4.7,M,,*59_
3,2,240,0,0,0.000000,-104,5_$GNGGA,021037.00,0438.09615,N,07404.10258,W,1,09,1.09,2612.5,M,4.7,M,,*5A_
3,2,240,0,0,0.000000,-105,5_$GNGGA,020954.00,0438.09783,N,07404.10229,W,1,10,0.94,2619.5,M,4.7,M,,*59_
3,2,240,0,0,0.000000,-105,5_$GNGGA,020915.00,0438.10149,N,07404.09920,W,1,10,0.94,2639.6,M,4.7,M,,*5F_
3,2,240,0,0,0.000000,-106,5_$GNGGA,020837.00,0438.09942,N,07404.09977,W,1,11,0.98,2630.2,M,4.7,M,,*57_
3,2,240,0,0,0.000000,-109,5_$GNGGA,020759.00,0438.09512,N,07404.10340,W,1,10,0.94,2608.3,M,4.7,M,,*58_
3,2,240,0,0,0.000000,-103,5_$GNGGA,020718.00,0438.09567,N,07404.10472,W,1,10,0.94,2596.5,M,4.7,M,,*5B_
3,2,240,0,0,0.000000,-107,5_$GNGGA,020635.00,0438.09458,N,07404.10494,W,1,10,0.98,2598.2,M,4.7,M,,*55_
3,2,240,0,0,0.000000,-102,5_$GNGGA,020556.00,0438.09308,N,07404.10624,W,1,11,0.91,2589.2,M,4.7,M,,*50_
3,2,240,0,0,0.000000,-106,5_$GNGGA,020517.00,0438.09371,N,07404.10762,W,1,11,0.91,2588.4,M,4.7,M,,*5F_
3,2,240,0,0,0.000000,-105,5_$GNGGA,020436.00,0438.09419,N,07404.10611,W,1,11,0.91,2594.4,M,4.7,M,,*5C_
3,2,240,0,0,0.000000,-105,5_$GNGGA,020353.00,0438.09481,N,07404.10516,W,1,10,0.91,2596.7,M,4.7,M,,*5D_
3,2,240,0,0,0.000000,-107,5_$GNGGA,020314.00,0438.09410,N,07404.10527,W,1,11,0.90,2598.3,M,4.7,M,,*5E_
3,2,240,0,0,0.000000,-94,255_$GNGGA,020232.00,0438.09378,N,07404.10430,W,1,11,0.90,2599.8,M,4.7,M,,*5F_
3,2,240,0,0,0.000000,-91,255_$GNGGA,020210.00,0438.09586,N,07404.10580,W,1,09,0.96,2595.1,M,4.7,M,,*58_
3,2,240,0,0,0.000000,-103,5_$GNGGA,020140.00,0438.09624,N,07404.10590,W,1,11,0.92,2595.6,M,4.7,M,,*5E_
3,2,240,0,0,0.000000,-106,5_$GNGGA,020101.00,0438.09498,N,07404.10421,W,1,11,0.90,2598.0,M,4.7,M,,*5C_
3,2,240,0,0,0.000000,-109,5_$GNGGA,020019.00,0438.09305,N,07404.10323,W,1,11,0.93,2595.0,M,4.7,M,,*5C_
3,2,240,0,0,0.000000,-106,5_$GNGGA,015936.00,0438.09270,N,07404.10243,W,1,07,1.02,2593.6,M,4.7,M,,*54_
3,2,240,0,0,0.000000,-104,5_$GNGGA,015857.00,0438.09290,N,07404.10151,W,1,11,0.90,2595.7,M,4.7,M,,*56_
3,2,240,0,0,0.000000,-106,5_$GNGGA,015815.00,0438.09370,N,07404.09989,W,1,11,0.90,2596.9,M,4.7,M,,*57_
3,2,240,0,0,0.000000,-105,5_$GNGGA,015736.00,0438.09358,N,07404.10176,W,1,11,0.90,2596.1,M,4.7,M,,*5B_
3,2,240,0,0,0.000000,-106,5_$GNGGA,015657.00,0438.09497,N,07404.10353,W,1,10,0.94,2598.0,M,4.7,M,,*56_
3,2,240,0,0,0.000000,-102,5_$GNGGA,015616.00,0438.09517,N,07404.10522,W,1,11,0.90,2600.9,M,4.7,M,,*54_
3,2,240,0,0,0.000000,-108,5_$GNGGA,015536.00,0438.09551,N,07404.10591,W,1,12,0.87,2595.2,M,4.7,M,,*5E_
3,2,240,0,0,0.000000,-106,5_$GNGGA,015458.00,0438.09539,N,07404.10670,W,1,12,0.87,2594.6,M,4.7,M,,*50_
3,2,240,0,0,0.000000,-103,5_$GNGGA,015419.00,0438.09492,N,07404.10592,W,1,12,0.87,2594.3,M,4.7,M,,*5F_
3,2,240,0,0,0.000000,-104,5_$GNGGA,015340.00,0438.09527,N,07404.10547,W,1,12,0.86,2592.8,M,4.7,M,,*5F_
3,2,240,0,0,0.000000,-106,5_$GNGGA,015259.00,0438.09395,N,07404.10647,W,1,11,0.94,2593.5,M,4.7,M,,*56_
3,2,240,0,0,0.000000,-105,5_$GNGGA,015217.00,0438.09372,N,07404.10705,W,1,12,0.90,2595.5,M,4.7,M,,*53_
3,2,240,0,0,0.000000,-104,5_$GNGGA,015135.00,0438.09482,N,07404.10717,W,1,12,0.90,2592.6,M,4.7,M,,*5F_
3,2,240,0,0,0.000000,-103,5_$GNGGA,015054.00,0438.09443,N,07404.10614,W,1,12,0.91,2592.6,M,4.7,M,,*57_
3,2,240,0,0,0.000000,-106,5_$GNGGA,015015.00,0438.09455,N,07404.10510,W,1,12,0.86,2593.2,M,4.7,M,,*51_
3,2,240,0,0,0.000000,-104,5_$GNGGA,014933.00,0438.09432,N,07404.10363,W,1,12,0.87,2591.3,M,4.7,M,,*5C_
3,2,240,0,0,0.000000,-106,5_$GNGGA,014852.00,0438.09431,N,07404.10225,W,1,10,0.90,2584.6,M,4.7,M,,*5F_
3,2,240,0,0,0.000000,-107,5_$GNGGA,014809.00,0438.09648,N,07404.10946,W,1,12,0.89,2582.0,M,4.7,M,,*59_
3,2,240,0,0,0.000000,-105,5_$GNGGA,014730.00,0438.09623,N,07404.10928,W,1,10,1.19,2578.6,M,4.7,M,,*50_
3,2,240,0,0,0.000000,-103,5_$GNGGA,014652.00,0438.09479,N,07404.10665,W,1,11,1.13,2583.3,M,4.7,M,,*54_
3,2,240,0,0,0.000000,-104,5_$GNGGA,014613.00,0438.09397,N,07404.10512,W,1,11,1.03,2585.0,M,4.7,M,,*51_
3,2,240,0,0,0.000000,-105,5_$GNGGA,014534.00,0438.09342,N,07404.10474,W,1,11,1.13,2589.8,M,4.7,M,,*5B_
3,2,240,0,0,0.000000,-104,5_$GNGGA,014452.00,0438.09361,N,07404.10451,W,1,12,1.03,2594.5,M,4.7,M,,*5F_
3,2,240,0,0,0.000000,-106,5_$GNGGA,014410.00,0438.09458,N,07404.10463,W,1,12,1.03,2591.1,M,4.7,M,,*54_
3,2,240,0,0,0.000000,-103,5_$GNGGA,014332.00,0438.09521,N,07404.10408,W,1,10,1.12,2595.4,M,4.7,M,,*52_
3,2,240,0,0,0.000000,-107,5_$GNGGA,014253.00,0438.09445,N,07404.10282,W,1,10,1.04,2593.8,M,4.7,M,,*5E_
3,2,240,0,0,0.000000,-103,5_$GNGGA,014211.00,0438.09520,N,07404.10678,W,1,10,1.11,2590.9,M,4.7,M,,*5D_
3,2,240,0,0,0.000000,-104,5_$GNGGA,014132.00,0438.09420,N,07404.10933,W,1,11,1.04,2592.8,M,4.7,M,,*58_
3,2,240,0,0,0.000000,-103,5_$GNGGA,014050.00,0438.09704,N,07404.11074,W,1,11,1.33,2588.3,M,4.7,M,,*57_
3,2,240,0,0,0.000000,-103,5_$GNGGA,014012.00,0438.09822,N,07404.11028,W,1,11,1.04,2590.0,M,4.7,M,,*5D_
3,2,240,0,0,0.000000,-105,5_$GNGGA,013930.00,0438.09994,N,07404.11061,W,1,10,1.19,2587.1,M,4.7,M,,*58_
3,2,240,0,0,0.000000,-103,5_$GNGGA,013849.00,0438.09729,N,07404.10707,W,1,10,1.34,2591.3,M,4.7,M,,*53_
3,2,240,0,0,0.000000,-106,5_$GNGGA,013810.00,0438.09442,N,07404.10446,W,1,11,1.15,2598.8,M,4.7,M,,*57_
3,2,240,0,0,0.000000,-104,5_$GNGGA,013728.00,0438.09376,N,07404.10436,W,1,10,1.20,2600.5,M,4.7,M,,*5C_
3,2,240,0,0,0.000000,-107,5_$GNGGA,013649.00,0438.09332,N,07404.10465,W,1,12,1.04,2598.1,M,4.7,M,,*5E_
3,2,240,0,0,0.000000,-104,5_$GNGGA,013607.00,0438.09448,N,07404.10536,W,1,12,1.04,2596.0,M,4.7,M,,*56_
3,2,240,0,0,0.000000,-89,5_$GNGGA,013528.00,0438.09545,N,07404.10539,W,1,11,1.15,2593.3,M,4.7,M,,*5E_
3,2,240,0,0,0.000000,-104,5_$GNGGA,013446.00,0438.09780,N,07404.10875,W,1,12,1.05,2590.4,M,4.7,M,,*5F_
3,2,240,0,0,0.000000,-107,5_$GNGGA,013404.00,0438.09585,N,07404.10662,W,1,12,1.05,2592.2,M,4.7,M,,*52_
3,2,240,0,0,0.000000,-106,5_$GNGGA,013325.00,0438.09252,N,07404.10310,W,1,11,1.17,2595.1,M,4.7,M,,*5F_
3,2,240,0,0,0.000000,-107,5_$GNGGA,013243.00,0438.09214,N,07404.10252,W,1,12,1.05,2596.6,M,4.7,M,,*5F_
3,2,240,0,0,0.000000,-107,5_$GNGGA,013205.00,0438.09219,N,07404.10313,W,1,12,1.11,2599.0,M,4.7,M,,*58_
3,2,240,0,0,0.000000,-105,5_$GNGGA,013126.00,0438.09211,N,07404.10184,W,1,12,1.05,2600.6,M,4.7,M,,*5E_
3,2,240,0,0,0.000000,-106,5_$GNGGA,013045.00,0438.09272,N,07404.10203,W,1,11,1.06,2599.7,M,4.7,M,,*51_
3,2,240,0,0,0.000000,-106,5_$GNGGA,013006.00,0438.09245,N,07404.10133,W,1,12,1.05,2597.6,M,4.7,M,,*5D_
3,2,240,0,0,0.000000,-102,5_$GNGGA,012925.00,0438.09429,N,07404.10063,W,1,12,1.05,2593.4,M,4.7,M,,*5A_
3,2,240,0,0,0.000000,-107,5_$GNGGA,012847.00,0438.09303,N,07404.10221,W,1,10,1.10,2594.1,M,4.7,M,,*50_
3,2,240,0,0,0.000000,-106,5_$GNGGA,012809.00,0438.09288,N,07404.10320,W,1,10,1.24,2597.3,M,4.7,M,,*5E_
3,2,240,0,0,0.000000,-109,5_$GNGGA,012727.00,0438.09167,N,07404.10261,W,1,10,1.16,2600.9,M,4.7,M,,*5D_
3,2,240,0,0,0.000000,-108,5_$GNGGA,012645.00,0438.09205,N,07404.10112,W,1,10,1.06,2598.5,M,4.7,M,,*57_
3,2,240,0,0,0.000000,-109,5_$GNGGA,012606.00,0438.09075,N,07404.10266,W,1,10,1.06,2601.2,M,4.7,M,,*51_
3,2,240,0,0,0.000000,-103,5_$GNGGA,012524.00,0438.09008,N,07404.10317,W,1,11,1.06,2603.0,M,4.7,M,,*5E_
3,2,240,0,0,0.000000,-106,5_$GNGGA,012445.00,0438.09034,N,07404.10266,W,1,10,1.11,2601.0,M,4.7,M,,*55_
3,2,240,0,0,0.000000,-106,5_$GNGGA,012403.00,0438.09100,N,07404.10205,W,1,11,1.06,2601.9,M,4.7,M,,*5A_
3,2,240,0,0,0.000000,-104,5_$GNGGA,012321.00,0438.09134,N,07404.10242,W,1,11,1.06,2602.3,M,4.7,M,,*50_
3,2,240,0,0,0.000000,-106,5_$GNGGA,012239.00,0438.09057,N,07404.10149,W,1,11,1.06,2607.1,M,4.7,M,,*53_
3,2,240,0,0,0.000000,-105,5_$GNGGA,012158.00,0438.09004,N,07404.10100,W,1,11,1.15,2606.7,M,4.7,M,,*59_
3,2,240,0,0,0.000000,-104,5_$GNGGA,012118.00,0438.08965,N,07404.10129,W,1,11,1.06,2609.8,M,4.7,M,,*5B_
3,2,240,0,0,0.000000,-107,5_$GNGGA,012036.00,0438.09041,N,07404.10045,W,1,10,1.11,2603.9,M,4.7,M,,*5F_
3,2,240,0,0,0.000000,-108,5_$GNGGA,011957.00,0438.09055,N,07404.10013,W,1,10,1.11,2604.7,M,4.7,M,,*5D_
3,2,240,0,0,0.000000,-104,5_$GNGGA,011919.00,0438.08998,N,07404.10085,W,1,11,1.06,2608.0,M,4.7,M,,*5D_
3,2,240,0,0,0.000000,-105,5_$GNGGA,011837.00,0438.09058,N,07404.10138,W,1,09,1.09,2605.4,M,4.7,M,,*5C_
3,2,240,0,0,0.000000,-107,5_$GNGGA,011757.00,0438.09092,N,07404.10218,W,1,10,1.07,2603.0,M,4.7,M,,*56_
3,2,240,0,0,0.000000,-108,5_$GNGGA,011718.00,0438.09159,N,07404.10194,W,1,11,1.06,2603.0,M,4.7,M,,*5C_
3,2,240,0,0,0.000000,-106,5_$GNGGA,011640.00,0438.09162,N,07404.10140,W,1,11,1.17,2603.4,M,4.7,M,,*55_
3,2,240,0,0,0.000000,-106,5_$GNGGA,011558.00,0438.09297,N,07404.10092,W,1,11,1.06,2599.2,M,4.7,M,,*5E_
3,2,240,0,0,0.000000,-108,5_$GNGGA,011520.00,0438.09151,N,07404.10093,W,1,11,1.06,2599.3,M,4.7,M,,*58_
3,2,240,0,0,0.000000,-106,5_$GNGGA,011438.00,0438.09003,N,07404.09978,W,1,11,1.06,2603.6,M,4.7,M,,*57_
3,2,240,0,0,0.000000,-103,5_$GNGGA,011356.00,0438.09065,N,07404.10135,W,1,09,1.13,2601.0,M,4.7,M,,*58_
3,2,240,0,0,0.000000,-107,5_$GNGGA,011314.00,0438.09126,N,07404.10251,W,1,12,1.13,2594.1,M,4.7,M,,*5D_
3,2,240,0,0,0.000000,-107,5_$GNGGA,011233.00,0438.09376,N,07404.10346,W,1,11,1.10,2594.4,M,4.7,M,,*5C_
3,2,240,0,0,0.000000,-108,5_$GNGGA,011153.00,0438.09232,N,07404.10372,W,1,12,1.52,2600.8,M,4.7,M,,*58_
3,2,240,0,0,0.000000,-106,5_$GNGGA,011111.00,0438.09120,N,07404.10083,W,1,08,1.58,2598.4,M,4.7,M,,*5C_
3,2,240,0,0,0.000000,-106,5_$GNGGA,011032.00,0438.09121,N,07404.10174,W,1,09,1.53,2601.0,M,4.7,M,,*59_
3,2,240,0,0,0.000000,-106,5_$GNGGA,010953.00,0438.09270,N,07404.10166,W,1,11,1.05,2599.2,M,4.7,M,,*58_
3,2,240,0,0,0.000000,-108,5_$GNGGA,010915.00,0438.09260,N,07404.09996,W,1,11,1.05,2597.3,M,4.7,M,,*5B_
3,2,240,0,0,0.000000,-102,5_$GNGGA,010834.00,0438.09207,N,07404.10030,W,1,11,1.05,2599.8,M,4.7,M,,*50_
3,2,240,0,0,0.000000,-109,5_$GNGGA,010752.00,0438.09274,N,07404.10167,W,1,10,1.07,2591.5,M,4.7,M,,*5E_
3,2,240,0,0,0.000000,-107,5_$GNGGA,010713.00,0438.09169,N,07404.10095,W,1,10,1.07,2596.9,M,4.7,M,,*53_
3,2,240,0,0,0.000000,-105,5_$GNGGA,010634.00,0438.09226,N,07404.09880,W,1,10,1.22,2598.8,M,4.7,M,,*53_
3,2,240,0,0,0.000000,-105,5_$GNGGA,010552.00,0438.09397,N,07404.09943,W,1,10,1.15,2595.9,M,4.7,M,,*5D_
3,2,240,0,0,0.000000,-106,5_$GNGGA,010509.00,0438.09256,N,07404.09951,W,1,10,1.06,2601.4,M,4.7,M,,*5D_
3,2,240,0,0,0.000000,-105,5_$GNGGA,010436.00,0438.09125,N,07404.10202,W,1,09,1.11,2596.7,M,4.7,M,,*52_
3,2,240,0,0,0.000000,-104,5_$GNGGA,010355.00,0438.09053,N,07404.10137,W,1,09,1.06,2597.6,M,4.7,M,,*53_
3,2,240,0,0,0.000000,-107,5_$GNGGA,010313.00,0438.09068,N,07404.10056,W,1,09,1.06,2596.1,M,4.7,M,,*59_
3,2,240,0,0,0.000000,-102,5_$GNGGA,010234.00,0438.09231,N,07404.10159,W,1,08,1.25,2590.4,M,4.7,M,,*5E_
3,2,240,0,0,0.000000,-93,255_$GNGGA,010152.00,0438.09233,N,07404.10307,W,1,09,1.17,2593.9,M,4.7,M,,*58_
3,2,240,0,0,0.000000,-107,5_$GNGGA,010135.00,0438.09201,N,07404.10254,W,1,09,1.17,2596.3,M,4.7,M,,*50_
3,2,240,0,0,0.000000,-103,5_$GNGGA,010056.00,0438.09304,N,07404.10008,W,1,09,1.17,2591.8,M,4.7,M,,*57_
3,2,240,0,0,0.000000,-104,5_$GNGGA,010014.00,0438.09487,N,07404.10159,W,1,09,1.17,2583.3,M,4.7,M,,*50_
3,2,240,0,0,0.000000,-108,5_$GNGGA,005935.00,0438.09350,N,07404.10239,W,1,10,1.07,2578.1,M,4.7,M,,*59_
3,2,240,0,0,0.000000,-106,5_$GNGGA,005856.00,0438.09425,N,07404.10248,W,1,11,1.02,2579.3,M,4.7,M,,*59_
3,2,240,0,0,0.000000,-103,5_$GNGGA,005815.00,0438.09236,N,07404.10031,W,1,11,1.02,2593.9,M,4.7,M,,*58_
3,2,240,0,0,0.000000,-107,5_$GNGGA,005736.00,0438.09274,N,07404.10002,W,1,10,1.05,2591.5,M,4.7,M,,*58_
3,2,240,0,0,0.000000,-106,5_$GNGGA,005658.00,0438.09218,N,07404.10061,W,1,11,1.02,2595.7,M,4.7,M,,*5E_
3,2,240,0,0,0.000000,-107,5_$GNGGA,005617.00,0438.09249,N,07404.10103,W,1,11,1.01,2593.4,M,4.7,M,,*52_
3,2,240,0,0,0.000000,-104,5_$GNGGA,005535.00,0438.09279,N,07404.10115,W,1,10,1.04,2590.4,M,4.7,M,,*52_
3,2,240,0,0,0.000000,-107,5_$GNGGA,005456.00,0438.09194,N,07404.10019,W,1,11,1.01,2591.4,M,4.7,M,,*5E_
3,2,240,0,0,0.000000,-106,5_$GNGGA,005413.00,0438.09278,N,07404.09994,W,1,11,1.01,2595.4,M,4.7,M,,*5E_
3,2,240,0,0,0.000000,-106,5_$GNGGA,005335.00,0438.09356,N,07404.10132,W,1,12,1.01,2596.3,M,4.7,M,,*5B_
3,2,240,0,0,0.000000,-108,5_$GNGGA,005256.00,0438.09316,N,07404.10168,W,1,12,1.04,2596.1,M,4.7,M,,*53_
3,2,240,0,0,0.000000,-106,5_$GNGGA,005214.00,0438.09263,N,07404.10184,W,1,12,1.00,2598.6,M,4.7,M,,*59_
3,2,240,0,0,0.000000,-106,5_$GNGGA,005131.00,0438.09374,N,07404.10155,W,1,12,1.00,2594.4,M,4.7,M,,*58_
3,2,240,0,0,0.000000,-103,5_$GNGGA,005052.00,0438.09261,N,07404.10217,W,1,12,1.00,2596.1,M,4.7,M,,*5B_
3,2,240,0,0,0.000000,-107,5_$GNGGA,005014.00,0438.09264,N,07404.10059,W,1,12,1.01,2587.2,M,4.7,M,,*56_
3,2,240,0,0,0.000000,-104,5_$GNGGA,004936.00,0438.09336,N,07404.09880,W,1,12,1.00,2581.8,M,4.7,M,,*51_
3,2,240,0,0,0.000000,-104,5_$GNGGA,004854.00,0438.09351,N,07404.09861,W,1,12,0.99,2587.0,M,4.7,M,,*55_
3,2,240,0,0,0.000000,-107,5_$GNGGA,004812.00,0438.09382,N,07404.09871,W,1,12,0.99,2580.5,M,4.7,M,,*5A_
3,2,240,0,0,0.000000,-104,5_$GNGGA,004731.00,0438.09352,N,07404.09962,W,1,12,0.99,2582.2,M,4.7,M,,*5F_
3,2,240,0,0,0.000000,-107,5_$GNGGA,004648.00,0438.09279,N,07404.10195,W,1,12,0.99,2591.9,M,4.7,M,,*59_
3,2,240,0,0,0.000000,-107,5_$GNGGA,004609.00,0438.09288,N,07404.10263,W,1,12,0.99,2595.7,M,4.7,M,,*52_
3,2,240,0,0,0.000000,-106,5_$GNGGA,004531.00,0438.09337,N,07404.10232,W,1,11,1.02,2595.3,M,4.7,M,,*5F_
3,2,240,0,0,0.000000,-107,5_$GNGGA,004450.00,0438.09290,N,07404.10224,W,1,11,1.02,2597.4,M,4.7,M,,*57_
3,2,240,0,0,0.000000,-107,5_$GNGGA,004408.00,0438.09296,N,07404.10211,W,1,11,1.01,2596.5,M,4.7,M,,*59_
3,2,240,0,0,0.000000,-104,5_$GNGGA,004329.00,0438.09233,N,07404.10174,W,1,11,1.01,2597.8,M,4.7,M,,*5E_
3,2,240,0,0,0.000000,-107,5_$GNGGA,004247.00,0438.09193,N,07404.10185,W,1,11,1.01,2596.4,M,4.7,M,,*5D_
3,2,240,0,0,0.000000,-103,5_$GNGGA,004208.00,0438.09241,N,07404.10310,W,1,11,1.01,2598.0,M,4.7,M,,*5E_
3,2,240,0,0,0.000000,-106,5_$GNGGA,004126.00,0438.09301,N,07404.10275,W,1,11,1.00,2591.5,M,4.7,M,,*5B_
3,2,240,0,0,0.000000,-106,5_$GNGGA,004045.00,0438.09292,N,07404.10336,W,1,09,1.08,2592.2,M,4.7,M,,*57_
3,2,240,0,0,0.000000,-106,5_$GNGGA,004002.00,0438.09360,N,07404.10330,W,1,11,1.00,2592.6,M,4.7,M,,*5B_
3,2,240,0,0,0.000000,-105,5_$GNGGA,003919.00,0438.09304,N,07404.10332,W,1,11,1.00,2597.4,M,4.7,M,,*58_
3,2,240,0,0,0.000000,-104,5_$GNGGA,003842.00,0438.09197,N,07404.10210,W,1,11,0.99,2597.3,M,4.7,M,,*58_
3,2,240,0,0,0.000000,-107,5_$GNGGA,003759.00,0438.09126,N,07404.09929,W,1,11,0.99,2585.6,M,4.7,M,,*58_
3,2,240,0,0,0.000000,-104,5_$GNGGA,003717.00,0438.09090,N,07404.09684,W,1,12,0.99,2581.6,M,4.7,M,,*51_
3,2,240,0,0,0.000000,-104,5_$GNGGA,003635.00,0438.09070,N,07404.09729,W,1,12,0.91,2595.0,M,4.7,M,,*53_
3,2,240,0,0,0.000000,-106,5_$GNGGA,003557.00,0438.08988,N,07404.09687,W,1,12,0.88,2598.7,M,4.7,M,,*5C_
3,2,240,0,0,0.000000,-109,5_$GNGGA,003514.00,0438.09136,N,07404.09903,W,1,12,0.98,2599.8,M,4.7,M,,*5B_
3,2,240,0,0,0.000000,-103,5_$GNGGA,003433.00,0438.09301,N,07404.10031,W,1,12,0.87,2595.4,M,4.7,M,,*57_
3,2,240,0,0,0.000000,-106,5_$GNGGA,003354.00,0438.09247,N,07404.10136,W,1,12,0.87,2592.5,M,4.7,M,,*52_
3,2,240,0,0,0.000000,-106,5_$GNGGA,003311.00,0438.09298,N,07404.10170,W,1,12,0.97,2593.5,M,4.7,M,,*53_
3,2,240,0,0,0.000000,-104,5_$GNGGA,003233.00,0438.09416,N,07404.10128,W,1,10,1.06,2588.0,M,4.7,M,,*5B_
3,2,240,0,0,0.000000,-106,5_$GNGGA,003154.00,0438.09427,N,07404.10522,W,1,12,0.89,2588.7,M,4.7,M,,*56_
3,2,240,0,0,0.000000,-107,5_$GNGGA,003112.00,0438.09408,N,07404.10343,W,1,11,0.91,2599.2,M,4.7,M,,*57_
3,2,240,0,0,0.000000,-106,5_$GNGGA,003030.00,0438.09367,N,07404.10214,W,1,11,0.90,2595.8,M,4.7,M,,*5C_
3,2,240,0,0,0.000000,-104,5_$GNGGA,002952.00,0438.09345,N,07404.10232,W,1,10,1.00,2596.2,M,4.7,M,,*54_
3,2,240,0,0,0.000000,-105,5_$GNGGA,002910.00,0438.09269,N,07404.10264,W,1,11,0.90,2597.7,M,4.7,M,,*53_
3,2,240,0,0,0.000000,-106,5_$GNGGA,002829.00,0438.09298,N,07404.10242,W,1,11,0.95,2599.6,M,4.7,M,,*58_
3,2,240,0,0,0.000000,-106,5_$GNGGA,002747.00,0438.09365,N,07404.10305,W,1,11,0.94,2602.9,M,4.7,M,,*51_
3,2,240,0,0,0.000000,-105,5_$GNGGA,002709.00,0438.09366,N,07404.10386,W,1,11,0.94,2603.6,M,4.7,M,,*5D_
3,2,240,0,0,0.000000,-106,5_$GNGGA,002627.00,0438.09338,N,07404.10454,W,1,11,0.94,2602.7,M,4.7,M,,*53_
3,2,240,0,0,0.000000,-105,5_$GNGGA,002545.00,0438.09396,N,07404.10519,W,1,10,0.99,2602.4,M,4.7,M,,*57_
3,2,240,0,0,0.000000,-106,5_$GNGGA,002507.00,0438.09477,N,07404.10511,W,1,10,0.95,2602.3,M,4.7,M,,*5A_
3,2,240,0,0,0.000000,-102,5_$GNGGA,002426.00,0438.09555,N,07404.10465,W,1,10,0.95,2599.0,M,4.7,M,,*59_
3,2,240,0,0,0.000000,-106,5_$GNGGA,002344.00,0438.09566,N,07404.10339,W,1,10,0.94,2596.8,M,4.7,M,,*52_
3,2,240,0,0,0.000000,-105,5_$GNGGA,002306.00,0438.09483,N,07404.10195,W,1,09,1.11,2598.3,M,4.7,M,,*5B_
3,2,240,0,0,0.000000,-104,5_$GNGGA,002223.00,0438.09456,N,07404.10156,W,1,10,0.94,2596.4,M,4.7,M,,*57_
3,2,240,0,0,0.000000,-104,5_$GNGGA,002145.00,0438.09391,N,07404.10345,W,1,11,0.93,2601.5,M,4.7,M,,*52_
3,2,240,0,0,0.000000,-107,5_$GNGGA,002102.00,0438.09289,N,07404.10389,W,1,11,0.92,2607.8,M,4.7,M,,*53_
3,2,240,0,0,0.000000,-108,5_$GNGGA,002018.00,0438.09395,N,07404.10382,W,1,11,0.92,2601.8,M,4.7,M,,*58_
3,2,240,0,0,0.000000,-108,5_$GNGGA,001935.00,0438.09411,N,07404.10421,W,1,11,0.92,2602.8,M,4.7,M,,*5B_
3,2,240,0,0,0.000000,-106,5_$GNGGA,001856.00,0438.09373,N,07404.10319,W,1,12,0.85,2601.7,M,4.7,M,,*59_
3,2,240,0,0,0.000000,-107,5_$GNGGA,001815.00,0438.09395,N,07404.10383,W,1,12,0.92,2598.9,M,4.7,M,,*5E_
3,2,240,0,0,0.000000,-102,5_$GNGGA,001733.00,0438.09344,N,07404.10496,W,1,11,0.93,2599.1,M,4.7,M,,*51_
3,2,240,0,0,0.000000,-107,5_$GNGGA,001655.00,0438.09205,N,07404.10481,W,1,11,0.92,2603.7,M,4.7,M,,*55_
3,2,240,0,0,0.000000,-107,5_$GNGGA,001612.00,0438.09198,N,07404.10592,W,1,11,0.92,2603.4,M,4.7,M,,*51_
3,2,240,0,0,0.000000,-105,5_$GNGGA,001534.00,0438.09153,N,07404.10500,W,1,11,0.92,2604.1,M,4.7,M,,*58_
3,0,0,0,0,0,0,0_$ 
