5,2,240,240,0,0.000000,-92,255_$GNGGA,204120.00,0438.09896,N,07404.10581,W,1,12,0.54,2579.9,M,4.7,M,,*5F_
5,2,240,240,0,0.000000,-94,255_$GNGGA,204039.00,0438.09907,N,07404.10644,W,1,12,0.54,2580.7,M,4.7,M,,*5D_
5,2,240,240,0,0.000000,-91,255_$GNGGA,203958.00,0438.09904,N,07404.10659,W,1,12,0.54,2581.4,M,4.7,M,,*59_
5,2,240,240,0,0.000000,-91,255_$GNGGA,203916.00,0438.09845,N,07404.10559,W,1,12,0.54,2581.2,M,4.7,M,,*52_
5,2,240,240,0,0.000000,-97,255_$GNGGA,203833.00,0438.09827,N,07404.10516,W,1,12,0.54,2581.1,M,4.7,M,,*58_
5,2,240,240,0,0.000000,-93,255_$GNGGA,203753.00,0438.09867,N,07404.10585,W,1,12,0.54,2581.4,M,4.7,M,,*5A_
5,2,240,240,0,0.000000,-93,255_$GNGGA,203712.00,0438.09858,N,07404.10574,W,1,12,0.55,2580.4,M,4.7,M,,*5D_
5,2,240,240,0,0.000000,-94,255_$GNGGA,203631.00,0438.09864,N,07404.10570,W,1,12,0.58,2580.9,M,4.7,M,,*56_
5,2,240,240,0,0.000000,-93,255_$GNGGA,203550.00,0438.09885,N,07404.10554,W,1,12,0.54,2583.0,M,4.7,M,,*5D_
5,2,240,240,0,0.000000,-93,255_$GNGGA,203509.00,0438.09825,N,07404.10462,W,1,12,0.54,2582.9,M,4.7,M,,*57_
5,2,240,240,0,0.000000,-92,255_$GNGGA,203428.00,0438.09818,N,07404.10455,W,1,12,0.56,2582.8,M,4.7,M,,*5C_
5,2,240,240,0,0.000000,-92,255_$GNGGA,203347.00,0438.09823,N,07404.10493,W,1,12,0.55,2581.8,M,4.7,M,,*50_
5,2,240,240,0,0.000000,-94,255_$GNGGA,203306.00,0438.09801,N,07404.10442,W,1,12,0.54,2583.3,M,4.7,M,,*51_
5,2,240,240,0,0.000000,-92,255_$GNGGA,203225.00,0438.09800,N,07404.10469,W,1,12,0.54,2583.4,M,4.7,M,,*5E_
5,2,240,240,0,0.000000,-92,255_$GNGGA,203144.00,0438.09796,N,07404.10472,W,1,12,0.55,2584.6,M,4.7,M,,*54_
5,2,240,240,0,0.000000,-93,255_$GNGGA,203103.00,0438.09777,N,07404.10457,W,1,12,0.53,2586.0,M,4.7,M,,*5D_
5,2,240,240,0,0.000000,-92,255_$GNGGA,203022.00,0438.09765,N,07404.10473,W,1,12,0.53,2584.8,M,4.7,M,,*50_
5,2,240,240,0,0.000000,-93,255_$GNGGA,202941.00,0438.09810,N,07404.10571,W,1,12,0.56,2582.8,M,4.7,M,,*50_
5,2,240,240,0,0.000000,-91,255_$GNGGA,202900.00,0438.09846,N,07404.10667,W,1,12,0.56,2581.1,M,4.7,M,,*58_
5,2,240,240,0,0.000000,-91,255_$GNGGA,202818.00,0438.09814,N,07404.10544,W,1,12,0.52,2583.1,M,4.7,M,,*53_
5,2,240,240,0,0.000000,-92,255_$GNGGA,202736.00,0438.09820,N,07404.10548,W,1,12,0.53,2584.5,M,4.7,M,,*59_
5,2,240,240,0,0.000000,-90,255_$GNGGA,202655.00,0438.09834,N,07404.10561,W,1,12,0.52,2583.2,M,4.7,M,,*52_
5,2,240,240,0,0.000000,-92,255_$GNGGA,202614.00,0438.09759,N,07404.10442,W,1,12,0.56,2582.9,M,4.7,M,,*5D_
5,2,240,240,0,0.000000,-92,255_$GNGGA,202533.00,0438.09777,N,07404.10434,W,1,12,0.55,2583.8,M,4.7,M,,*55_
5,2,240,240,0,0.000000,-94,255_$GNGGA,202452.00,0438.09778,N,07404.10430,W,1,12,0.54,2585.3,M,4.7,M,,*54_
5,2,240,240,0,0.000000,-90,255_$GNGGA,202411.00,0438.09747,N,07404.10376,W,1,12,0.54,2587.0,M,4.7,M,,*5B_
5,2,240,240,0,0.000000,-92,255_$GNGGA,202330.00,0438.09756,N,07404.10411,W,1,12,0.54,2589.4,M,4.7,M,,*53_
5,2,240,240,0,0.000000,-91,255_$GNGGA,202249.00,0438.09683,N,07404.10312,W,1,12,0.56,2588.4,M,4.7,M,,*52_
5,2,240,240,0,0.000000,-92,255_$GNGGA,202208.00,0438.09681,N,07404.10323,W,1,12,0.54,2588.5,M,4.7,M,,*54_
5,2,240,240,0,0.000000,-93,255_$GNGGA,202127.00,0438.09702,N,07404.10343,W,1,12,0.53,2589.9,M,4.7,M,,*5C_
5,2,240,240,0,0.000000,-92,255_$GNGGA,202047.00,0438.09708,N,07404.10363,W,1,12,0.55,2590.8,M,4.7,M,,*5C_
5,2,240,240,0,0.000000,-48,255_$GNGGA,202006.00,0438.09702,N,07404.10358,W,1,12,0.54,2591.0,M,4.7,M,,*53_
5,2,240,240,0,0.000000,-96,255_$GNGGA,201925.00,0438.09669,N,07404.10291,W,1,12,0.56,2589.7,M,4.7,M,,*5C_
5,2,240,240,0,0.000000,-94,255_$GNGGA,201844.00,0438.09715,N,07404.10350,W,1,12,0.54,2589.9,M,4.7,M,,*50_
5,2,240,240,0,0.000000,-93,255_$GNGGA,201803.00,0438.09774,N,07404.10436,W,1,12,0.54,2590.1,M,4.7,M,,*53_
5,2,240,240,0,0.000000,-94,255_$GNGGA,201722.00,0438.09801,N,07404.10503,W,1,12,0.54,2590.7,M,4.7,M,,*53_
5,2,240,240,0,0.000000,-91,255_$GNGGA,201641.00,0438.09776,N,07404.10479,W,1,12,0.53,2589.8,M,4.7,M,,*54_
5,2,240,240,0,0.000000,-95,255_$GNGGA,201559.00,0438.09757,N,07404.10428,W,1,12,0.53,2588.1,M,4.7,M,,*51_
5,2,240,240,0,0.000000,-93,255_$GNGGA,201517.00,0438.09765,N,07404.10435,W,1,12,0.55,2589.5,M,4.7,M,,*55_
5,2,240,240,0,0.000000,-91,255_$GNGGA,201436.00,0438.09762,N,07404.10482,W,1,12,0.53,2592.2,M,4.7,M,,*57_
5,2,240,240,0,0.000000,-91,255_$GNGGA,201355.00,0438.09776,N,07404.10556,W,1,12,0.55,2591.7,M,4.7,M,,*58_
5,2,240,240,0,0.000000,-90,255_$GNGGA,201314.00,0438.09746,N,07404.10508,W,1,12,0.54,2592.6,M,4.7,M,,*56_
5,2,240,240,0,0.000000,-91,255_$GNGGA,201233.00,0438.09742,N,07404.10490,W,1,12,0.55,2594.1,M,4.7,M,,*56_
5,2,240,240,0,0.000000,-94,255_$GNGGA,201152.00,0438.09734,N,07404.10486,W,1,12,0.55,2591.6,M,4.7,M,,*56_
5,2,240,240,0,0.000000,-93,255_$GNGGA,201111.00,0438.09734,N,07404.10478,W,1,12,0.53,2590.0,M,4.7,M,,*51_
5,2,240,240,0,0.000000,-92,255_$GNGGA,201030.00,0438.09760,N,07404.10537,W,1,12,0.55,2590.5,M,4.7,M,,*5B_
5,2,240,240,0,0.000000,-92,255_$GNGGA,200949.00,0438.09782,N,07404.10530,W,1,12,0.53,2592.0,M,4.7,M,,*57_
5,2,240,240,0,0.000000,-93,255_$GNGGA,200913.00,0438.09791,N,07404.10522,W,1,12,0.53,2591.1,M,4.7,M,,*5B_
5,2,240,240,0,0.000000,-45,255_$GNGGA,200832.00,0438.09777,N,07404.10546,W,1,12,0.53,2589.8,M,4.7,M,,*53_
5,2,240,240,0,0.000000,-96,255_$GNGGA,200751.00,0438.09774,N,07404.10550,W,1,12,0.53,2590.5,M,4.7,M,,*58_
5,2,240,240,0,0.000000,-95,255_$GNGGA,200710.00,0438.09755,N,07404.10559,W,1,12,0.53,2591.6,M,4.7,M,,*55_
5,2,240,240,0,0.000000,-90,255_$GNGGA,200629.00,0438.09771,N,07404.10490,W,1,12,0.53,2592.4,M,4.7,M,,*5D_
5,2,240,240,0,0.000000,-91,255_$GNGGA,200548.00,0438.09793,N,07404.10472,W,1,12,0.54,2594.4,M,4.7,M,,*58_
5,2,240,240,0,0.000000,-92,255_$GNGGA,200507.00,0438.09766,N,07404.10493,W,1,12,0.58,2593.6,M,4.7,M,,*5F_
5,2,240,240,0,0.000000,-90,255_$GNGGA,200426.00,0438.09758,N,07404.10577,W,1,12,0.62,2593.8,M,4.7,M,,*5C_
5,2,240,240,0,0.000000,-92,255_$GNGGA,200346.00,0438.09752,N,07404.10633,W,1,12,0.56,2592.1,M,4.7,M,,*5B_
5,2,240,240,0,0.000000,-94,255_$GNGGA,200305.00,0438.09738,N,07404.10599,W,1,12,0.58,2592.0,M,4.7,M,,*5C_
5,2,240,240,0,0.000000,-94,255_$GNGGA,200224.00,0438.09769,N,07404.10593,W,1,12,0.61,2590.1,M,4.7,M,,*59_
5,2,240,240,0,0.000000,-93,255_$GNGGA,200143.00,0438.09759,N,07404.10613,W,1,12,0.56,2589.9,M,4.7,M,,*57_
5,2,240,240,0,0.000000,-92,255_$GNGGA,200102.00,0438.09788,N,07404.10624,W,1,12,0.54,2592.3,M,4.7,M,,*58_
5,2,240,240,0,0.000000,-93,255_$GNGGA,200021.00,0438.09727,N,07404.10640,W,1,12,0.56,2590.9,M,4.7,M,,*55_
5,2,240,240,0,0.000000,-94,255_$GNGGA,195940.00,0438.09733,N,07404.10689,W,1,12,0.57,2588.9,M,4.7,M,,*5C_
5,2,240,240,0,0.000000,-92,255_$GNGGA,195859.00,0438.09733,N,07404.10682,W,1,12,0.54,2589.6,M,4.7,M,,*53_
5,2,240,240,0,0.000000,-92,255_$GNGGA,195818.00,0438.09730,N,07404.10730,W,1,12,0.55,2589.4,M,4.7,M,,*5E_
5,2,240,240,0,0.000000,-48,255_$GNGGA,195736.00,0438.09728,N,07404.10731,W,1,12,0.57,2589.5,M,4.7,M,,*56_
5,2,240,240,0,0.000000,-92,255_$GNGGA,195654.00,0438.09749,N,07404.10717,W,1,12,0.56,2590.2,M,4.7,M,,*5E_
5,2,240,240,0,0.000000,-90,255_$GNGGA,195613.00,0438.09734,N,07404.10711,W,1,12,0.55,2592.2,M,4.7,M,,*50_
5,2,240,240,0,0.000000,-91,255_$GNGGA,195532.00,0438.09711,N,07404.10715,W,1,12,0.55,2591.4,M,4.7,M,,*56_
5,2,240,240,0,0.000000,-92,255_$GNGGA,195457.00,0438.09724,N,07404.10731,W,1,12,0.55,2592.6,M,4.7,M,,*55_
5,2,240,240,0,0.000000,-93,255_$GNGGA,195416.00,0438.09768,N,07404.10710,W,1,12,0.56,2592.8,M,4.7,M,,*56_
5,2,240,240,0,0.000000,-88,255_$GNGGA,195335.00,0438.09804,N,07404.10711,W,1,12,0.54,2591.2,M,4.7,M,,*5F_
5,2,240,240,0,0.000000,-92,255_$GNGGA,195254.00,0438.09797,N,07404.10751,W,1,12,0.54,2589.6,M,4.7,M,,*55_
5,2,240,240,0,0.000000,-91,255_$GNGGA,195212.00,0438.09779,N,07404.10684,W,1,12,0.58,2590.8,M,4.7,M,,*54_
5,2,240,240,0,0.000000,-92,255_$GNGGA,195126.00,0438.09789,N,07404.10599,W,1,12,0.56,2592.5,M,4.7,M,,*51_
5,2,240,240,0,0.000000,-92,255_$GNGGA,195046.00,0438.09769,N,07404.10561,W,1,12,0.54,2592.7,M,4.7,M,,*5F_
5,2,240,240,0,0.000000,-94,255_$GNGGA,195005.00,0438.09771,N,07404.10614,W,1,12,0.56,2591.3,M,4.7,M,,*55_
5,2,240,240,0,0.000000,-94,255_$GNGGA,194924.00,0438.09747,N,07404.10678,W,1,12,0.59,2592.6,M,4.7,M,,*58_
5,2,240,240,0,0.000000,-96,255_$GNGGA,194843.00,0438.09735,N,07404.10699,W,1,12,0.55,2592.3,M,4.7,M,,*5B_
5,2,240,240,0,0.000000,-94,255_$GNGGA,194802.00,0438.09719,N,07404.10677,W,1,12,0.55,2592.8,M,4.7,M,,*5B_
5,2,240,240,0,0.000000,-93,255_$GNGGA,194721.00,0438.09708,N,07404.10638,W,1,12,0.55,2595.2,M,4.7,M,,*53_
5,2,240,240,0,0.000000,-93,255_$GNGGA,194640.00,0438.09706,N,07404.10637,W,1,12,0.55,2598.1,M,4.7,M,,*5A_
5,2,240,240,0,0.000000,-93,255_$GNGGA,194559.00,0438.09742,N,07404.10640,W,1,12,0.60,2597.4,M,4.7,M,,*5D_
5,2,240,240,0,0.000000,-92,255_$GNGGA,194518.00,0438.09778,N,07404.10654,W,1,12,0.65,2598.0,M,4.7,M,,*5A_
5,2,240,240,0,0.000000,-93,255_$GNGGA,194442.00,0438.09748,N,07404.10641,W,1,12,0.60,2598.7,M,4.7,M,,*51_
5,2,240,240,0,0.000000,-90,255_$GNGGA,194401.00,0438.09712,N,07404.10587,W,1,12,0.58,2598.0,M,4.7,M,,*5C_
5,2,240,240,0,0.000000,-93,255_$GNGGA,194320.00,0438.09705,N,07404.10596,W,1,12,0.58,2598.4,M,4.7,M,,*5A_
5,2,240,240,0,0.000000,-92,255_$GNGGA,194239.00,0438.09708,N,07404.10657,W,1,12,0.62,2600.0,M,4.7,M,,*5F_
5,2,240,240,0,0.000000,-93,255_$GNGGA,194158.00,0438.09697,N,07404.10656,W,1,12,0.63,2597.0,M,4.7,M,,*51_
5,2,240,240,0,0.000000,-93,255_$GNGGA,194117.00,0438.09694,N,07404.10661,W,1,12,0.57,2595.3,M,4.7,M,,*5B_
5,2,240,240,0,0.000000,-93,255_$GNGGA,194037.00,0438.09699,N,07404.10623,W,1,12,0.60,2592.6,M,4.7,M,,*55_
5,2,240,240,0,0.000000,-94,255_$GNGGA,193956.00,0438.09706,N,07404.10637,W,1,12,0.66,2591.7,M,4.7,M,,*5A_
5,2,240,240,0,0.000000,-95,255_$GNGGA,193913.00,0438.09700,N,07404.10614,W,1,12,0.65,2591.4,M,4.7,M,,*5C_
5,2,240,240,0,0.000000,-96,255_$GNGGA,193832.00,0438.09704,N,07404.10587,W,1,12,0.65,2589.4,M,4.7,M,,*5A_
5,2,240,240,0,0.000000,-94,255_$GNGGA,193751.00,0438.09723,N,07404.10576,W,1,12,0.66,2584.8,M,4.7,M,,*59_
5,2,240,240,0,0.000000,-93,255_$GNGGA,193710.00,0438.09760,N,07404.10642,W,1,12,0.64,2583.4,M,4.7,M,,*56_
5,2,240,240,0,0.000000,-92,255_$GNGGA,193628.00,0438.09784,N,07404.10704,W,1,12,0.62,2583.6,M,4.7,M,,*51_
5,2,240,240,0,0.000000,-92,255_$GNGGA,193547.00,0438.09758,N,07404.10725,W,1,12,0.66,2583.5,M,4.7,M,,*5E_
5,2,240,240,0,0.000000,-93,255_$GNGGA,193502.00,0438.09776,N,07404.10788,W,1,12,0.61,2583.7,M,4.7,M,,*51_
5,2,240,240,0,0.000000,-91,255_$GNGGA,193422.00,0438.09778,N,07404.10832,W,1,12,0.58,2583.2,M,4.7,M,,*5D_
5,2,240,240,0,0.000000,-93,255_$GNGGA,193342.00,0438.09768,N,07404.10785,W,1,12,0.57,2584.5,M,4.7,M,,*51_
5,2,240,240,0,0.000000,-94,255_$GNGGA,193301.00,0438.09740,N,07404.10773,W,1,12,0.65,2582.8,M,4.7,M,,*5F_
5,2,240,240,0,0.000000,-93,255_$GNGGA,193220.00,0438.09729,N,07404.10773,W,1,12,0.59,2582.0,M,4.7,M,,*55_
5,2,240,240,0,0.000000,-91,255_$GNGGA,193140.00,0438.09724,N,07404.10767,W,1,12,0.62,2582.7,M,4.7,M,,*57_
5,2,240,240,0,0.000000,-92,255_$GNGGA,193059.00,0438.09712,N,07404.10795,W,1,12,0.62,2583.4,M,4.7,M,,*54_
5,2,240,240,0,0.000000,-93,255_$GNGGA,193018.00,0438.09702,N,07404.10736,W,1,12,0.60,2585.4,M,4.7,M,,*5D_
5,2,240,240,0,0.000000,-48,255_$GNGGA,192937.00,0438.09699,N,07404.10719,W,1,12,0.63,2584.7,M,4.7,M,,*57_
5,2,240,240,0,0.000000,-93,255_$GNGGA,192856.00,0438.09708,N,07404.10700,W,1,12,0.64,2584.8,M,4.7,M,,*58_
5,2,240,240,0,0.000000,-93,255_$GNGGA,192814.00,0438.09698,N,07404.10734,W,1,12,0.59,2585.8,M,4.7,M,,*5E_
5,2,240,240,0,0.000000,-93,255_$GNGGA,192733.00,0438.09701,N,07404.10749,W,1,12,0.60,2586.8,M,4.7,M,,*56_
5,2,240,240,0,0.000000,-93,255_$GNGGA,192652.00,0438.09712,N,07404.10784,W,1,12,0.67,2586.8,M,4.7,M,,*54_
5,2,240,240,0,0.000000,-89,255_$GNGGA,192611.00,0438.09701,N,07404.10740,W,1,12,0.60,2589.2,M,4.7,M,,*5B_
5,2,240,240,0,0.000000,-94,255_$GNGGA,192530.00,0438.09686,N,07404.10701,W,1,12,0.62,2590.8,M,4.7,M,,*50_
5,2,240,240,0,0.000000,-93,255_$GNGGA,192449.00,0438.09664,N,07404.10706,W,1,12,0.63,2591.3,M,4.7,M,,*5F_
5,2,240,240,0,0.000000,-94,255_$GNGGA,192408.00,0438.09640,N,07404.10709,W,1,12,0.65,2591.0,M,4.7,M,,*56_
5,2,240,240,0,0.000000,-95,255_$GNGGA,192328.00,0438.09604,N,07404.10681,W,1,12,0.67,2590.8,M,4.7,M,,*59_
5,2,240,240,0,0.000000,-93,255_$GNGGA,192242.00,0438.09603,N,07404.10571,W,1,12,0.67,2590.0,M,4.7,M,,*57_
5,2,240,240,0,0.000000,-92,255_$GNGGA,192202.00,0438.09636,N,07404.10634,W,1,12,0.66,2591.3,M,4.7,M,,*54_
5,2,240,240,0,0.000000,-93,255_$GNGGA,192121.00,0438.09653,N,07404.10690,W,1,12,0.60,2593.3,M,4.7,M,,*5F_
5,2,240,240,0,0.000000,-92,255_$GNGGA,192041.00,0438.09661,N,07404.10757,W,1,12,0.61,2591.4,M,4.7,M,,*57_
5,2,240,240,0,0.000000,-91,255_$GNGGA,192001.00,0438.09643,N,07404.10779,W,1,12,0.60,2588.9,M,4.7,M,,*5B_
5,2,240,240,0,0.000000,-96,255_$GNGGA,191920.00,0438.09641,N,07404.10718,W,1,12,0.61,2587.5,M,4.7,M,,*55_
5,2,240,240,0,0.000000,-92,255_$GNGGA,191838.00,0438.09631,N,07404.10736,W,1,12,0.61,2589.2,M,4.7,M,,*5F_
5,2,240,240,0,0.000000,-93,255_$GNGGA,191756.00,0438.09627,N,07404.10707,W,1,12,0.65,2589.6,M,4.7,M,,*5D_
5,2,240,240,0,0.000000,-92,255_$GNGGA,191710.00,0438.09644,N,07404.10679,W,1,12,0.66,2590.0,M,4.7,M,,*5F_
5,2,240,240,0,0.000000,-93,255_$GNGGA,191630.00,0438.09649,N,07404.10698,W,1,12,0.66,2590.2,M,4.7,M,,*5C_
5,2,240,240,0,0.000000,-92,255_$GNGGA,191545.00,0438.09648,N,07404.10713,W,1,12,0.66,2590.8,M,4.7,M,,*54_
5,2,240,240,0,0.000000,-92,255_$GNGGA,191505.00,0438.09639,N,07404.10647,W,1,12,0.69,2590.9,M,4.7,M,,*58_
5,2,240,240,0,0.000000,-94,255_$GNGGA,191424.00,0438.09608,N,07404.10639,W,1,12,0.72,2590.4,M,4.7,M,,*56_
5,2,240,240,0,0.000000,-92,255_$GNGGA,191343.00,0438.09592,N,07404.10610,W,1,12,0.67,2592.4,M,4.7,M,,*5D_
5,2,240,240,0,0.000000,-93,255_$GNGGA,191301.00,0438.09626,N,07404.10650,W,1,12,0.69,2591.5,M,4.7,M,,*5F_
5,2,240,240,0,0.000000,-93,255_$GNGGA,191220.00,0438.09602,N,07404.10618,W,1,12,0.67,2594.2,M,4.7,M,,*5B_
5,2,240,240,0,0.000000,-92,255_$GNGGA,191134.00,0438.09567,N,07404.10611,W,1,12,0.66,2597.7,M,4.7,M,,*53_
5,2,240,240,0,0.000000,-47,255_$GNGGA,191054.00,0438.09554,N,07404.10592,W,1,12,0.66,2598.1,M,4.7,M,,*55_
5,2,240,240,0,0.000000,-92,255_$GNGGA,191009.00,0438.09591,N,07404.10637,W,1,12,0.62,2598.1,M,4.7,M,,*5C_
5,2,240,240,0,0.000000,-94,255_$GNGGA,190929.00,0438.09605,N,07404.10589,W,1,12,0.61,2600.0,M,4.7,M,,*5E_
5,2,240,240,0,0.000000,-92,255_$GNGGA,190849.00,0438.09570,N,07404.10550,W,1,12,0.61,2600.7,M,4.7,M,,*5B_
5,2,240,240,0,0.000000,-93,255_$GNGGA,190808.00,0438.09587,N,07404.10574,W,1,12,0.65,2598.9,M,4.7,M,,*58_
5,2,240,240,0,0.000000,-94,255_$GNGGA,190726.00,0438.09557,N,07404.10564,W,1,12,0.65,2597.8,M,4.7,M,,*59_
5,2,240,240,0,0.000000,-92,255_$GNGGA,190644.00,0438.09564,N,07404.10614,W,1,12,0.65,2596.9,M,4.7,M,,*58_
5,2,240,240,0,0.000000,-94,255_$GNGGA,190558.00,0438.09557,N,07404.10572,W,1,12,0.60,2596.8,M,4.7,M,,*51_
5,2,240,240,0,0.000000,-92,255_$GNGGA,190518.00,0438.09548,N,07404.10578,W,1,12,0.59,2597.4,M,4.7,M,,*56_
5,2,240,240,0,0.000000,-91,255_$GNGGA,190438.00,0438.09575,N,07404.10570,W,1,12,0.59,2597.5,M,4.7,M,,*52_
5,2,240,240,0,0.000000,-92,255_$GNGGA,190358.00,0438.09579,N,07404.10596,W,1,12,0.65,2598.4,M,4.7,M,,*56_
5,2,240,240,0,0.000000,-93,255_$GNGGA,190317.00,0438.09537,N,07404.10513,W,1,12,0.67,2600.0,M,4.7,M,,*5E_
5,2,240,240,0,0.000000,-95,255_$GNGGA,190237.00,0438.09557,N,07404.10498,W,1,12,0.61,2599.3,M,4.7,M,,*5F_
5,2,240,240,0,0.000000,-93,255_$GNGGA,190152.00,0438.09541,N,07404.10493,W,1,12,0.71,2598.1,M,4.7,M,,*51_
5,2,240,240,0,0.000000,-92,255_$GNGGA,190112.00,0438.09511,N,07404.10547,W,1,12,0.59,2599.2,M,4.7,M,,*50_
5,2,240,240,0,0.000000,-93,255_$GNGGA,190032.00,0438.09576,N,07404.10617,W,1,12,0.60,2597.5,M,4.7,M,,*57_
5,2,240,240,0,0.000000,-95,255_$GNGGA,185951.00,0438.09590,N,07404.10597,W,1,12,0.65,2597.1,M,4.7,M,,*5D_
5,2,240,240,0,0.000000,-93,255_$GNGGA,185910.00,0438.09603,N,07404.10595,W,1,12,0.64,2595.5,M,4.7,M,,*54_
5,2,240,240,0,0.000000,-91,255_$GNGGA,185827.00,0438.09607,N,07404.10529,W,1,12,0.59,2596.7,M,4.7,M,,*5D_
5,2,240,240,0,0.000000,-91,255_$GNGGA,185746.00,0438.09596,N,07404.10511,W,1,12,0.60,2598.1,M,4.7,M,,*57_
5,2,240,240,0,0.000000,-96,255_$GNGGA,185705.00,0438.09614,N,07404.10556,W,1,12,0.66,2599.4,M,4.7,M,,*58_
5,2,240,240,0,0.000000,-93,255_$GNGGA,185619.00,0438.09637,N,07404.10519,W,1,12,0.64,2599.8,M,4.7,M,,*50_
5,2,240,240,0,0.000000,-93,255_$GNGGA,185539.00,0438.09625,N,07404.10509,W,1,12,0.65,2600.5,M,4.7,M,,*5C_
5,2,240,240,0,0.000000,-91,255_$GNGGA,185458.00,0438.09605,N,07404.10483,W,1,12,0.65,2599.3,M,4.7,M,,*5E_
5,2,240,240,0,0.000000,-93,255_$GNGGA,185418.00,0438.09579,N,07404.10489,W,1,12,0.55,2599.4,M,4.7,M,,*5C_
5,2,240,240,0,0.000000,-92,255_$GNGGA,185337.00,0438.09596,N,07404.10531,W,1,12,0.62,2600.0,M,4.7,M,,*56_
5,2,240,240,0,0.000000,-93,255_$GNGGA,185257.00,0438.09592,N,07404.10522,W,1,12,0.56,2600.2,M,4.7,M,,*52_
5,2,240,240,0,0.000000,-96,255_$GNGGA,185216.00,0438.09604,N,07404.10562,W,1,12,0.54,2598.5,M,4.7,M,,*58_
5,2,240,240,0,0.000000,-92,255_$GNGGA,185135.00,0438.09642,N,07404.10613,W,1,12,0.60,2596.8,M,4.7,M,,*59_
5,2,240,240,0,0.000000,-93,255_$GNGGA,185054.00,0438.09564,N,07404.10529,W,1,12,0.63,2599.7,M,4.7,M,,*51_
5,2,240,240,0,0.000000,-94,255_$GNGGA,185014.00,0438.09470,N,07404.10458,W,1,12,0.58,2601.5,M,4.7,M,,*5E_
5,2,240,240,0,0.000000,-91,255_$GNGGA,184933.00,0438.09461,N,07404.10434,W,1,12,0.61,2602.2,M,4.7,M,,*57_
5,2,240,240,0,0.000000,-92,255_$GNGGA,184852.00,0438.09494,N,07404.10396,W,1,12,0.59,2603.1,M,4.7,M,,*5D_
5,2,240,240,0,0.000000,-91,255_$GNGGA,184809.00,0438.09507,N,07404.10365,W,1,12,0.54,2602.2,M,4.7,M,,*5B_
5,2,240,240,0,0.000000,-93,255_$GNGGA,184728.00,0438.09526,N,07404.10323,W,1,12,0.54,2601.0,M,4.7,M,,*57_
5,2,240,240,0,0.000000,-92,255_$GNGGA,184642.00,0438.09571,N,07404.10376,W,1,12,0.54,2601.0,M,4.7,M,,*58_
5,2,240,240,0,0.000000,-94,255_$GNGGA,184558.00,0438.09562,N,07404.10434,W,1,12,0.54,2601.2,M,4.7,M,,*51_
5,2,240,240,0,0.000000,-93,255_$GNGGA,184518.00,0438.09578,N,07404.10462,W,1,12,0.54,2600.3,M,4.7,M,,*5D_
5,2,240,240,0,0.000000,-94,255_$GNGGA,184438.00,0438.09621,N,07404.10471,W,1,12,0.57,2599.6,M,4.7,M,,*56_
5,2,240,240,0,0.000000,-91,255_$GNGGA,184357.00,0438.09624,N,07404.10427,W,1,12,0.54,2599.0,M,4.7,M,,*5B_
5,2,240,240,0,0.000000,-91,255_$GNGGA,184316.00,0438.09521,N,07404.10326,W,1,12,0.57,2597.3,M,4.7,M,,*50_
5,2,240,240,0,0.000000,-92,255_$GNGGA,184235.00,0438.09571,N,07404.10357,W,1,12,0.55,2596.7,M,4.7,M,,*54_
5,2,240,240,0,0.000000,-93,255_$GNGGA,184154.00,0438.09598,N,07404.10359,W,1,12,0.58,2598.5,M,4.7,M,,*58_
5,2,240,240,0,0.000000,-92,255_$GNGGA,184112.00,0438.09627,N,07404.10392,W,1,12,0.58,2598.4,M,4.7,M,,*5B_
5,2,240,240,0,0.000000,-92,255_$GNGGA,184031.00,0438.09637,N,07404.10364,W,1,12,0.57,2598.5,M,4.7,M,,*5D_
5,2,240,240,0,0.000000,-91,255_$GNGGA,183945.00,0438.09616,N,07404.10365,W,1,12,0.59,2598.0,M,4.7,M,,*59_
5,2,240,240,0,0.000000,-94,255_$GNGGA,183905.00,0438.09607,N,07404.10373,W,1,12,0.54,2596.8,M,4.7,M,,*51_
5,2,240,240,0,0.000000,-94,255_$GNGGA,183825.00,0438.09628,N,07404.10378,W,1,12,0.54,2596.4,M,4.7,M,,*58_
5,2,240,240,0,0.000000,-93,255_$GNGGA,183745.00,0438.09650,N,07404.10395,W,1,12,0.58,2597.1,M,4.7,M,,*55_
5,2,240,240,0,0.000000,-93,255_$GNGGA,183705.00,0438.09671,N,07404.10367,W,1,12,0.58,2599.0,M,4.7,M,,*50_
5,2,240,240,0,0.000000,-90,255_$GNGGA,183624.00,0438.09705,N,07404.10426,W,1,12,0.55,2599.0,M,4.7,M,,*5F_
5,2,240,240,0,0.000000,-93,255_$GNGGA,183543.00,0438.09738,N,07404.10498,W,1,12,0.57,2597.9,M,4.7,M,,*53_
5,2,240,240,0,0.000000,-91,255_$GNGGA,183501.00,0438.09729,N,07404.10534,W,1,12,0.57,2597.0,M,4.7,M,,*5B_
5,2,240,240,0,0.000000,-92,255_$GNGGA,183420.00,0438.09718,N,07404.10511,W,1,12,0.57,2598.1,M,4.7,M,,*52_
5,2,240,240,0,0.000000,-92,255_$GNGGA,183339.00,0438.09688,N,07404.10432,W,1,12,0.57,2599.8,M,4.7,M,,*5D_
5,2,240,240,0,0.000000,-91,255_$GNGGA,183259.00,0438.09727,N,07404.10524,W,1,12,0.59,2599.1,M,4.7,M,,*5F_
5,2,240,240,0,0.000000,-92,255_$GNGGA,183218.00,0438.09757,N,07404.10580,W,1,12,0.60,2598.4,M,4.7,M,,*5D_
5,2,240,240,0,0.000000,-94,255_$GNGGA,183137.00,0438.09763,N,07404.10571,W,1,12,0.60,2596.4,M,4.7,M,,*54_
5,2,240,240,0,0.000000,-92,255_$GNGGA,183054.00,0438.09757,N,07404.10595,W,1,12,0.57,2595.6,M,4.7,M,,*58_
5,2,240,240,0,0.000000,-94,255_$GNGGA,183013.00,0438.09765,N,07404.10617,W,1,12,0.56,2595.0,M,4.7,M,,*54_
5,2,240,240,0,0.000000,-93,255_$GNGGA,182927.00,0438.09749,N,07404.10573,W,1,12,0.55,2596.8,M,4.7,M,,*5C_
5,2,240,240,0,0.000000,-88,255_$GNGGA,182857.00,0438.09746,N,07404.10537,W,1,12,0.57,2596.9,M,4.7,M,,*56_
5,2,240,240,0,0.000000,-92,255_$GNGGA,182710.00,0438.09700,N,07404.10438,W,1,12,0.57,2597.6,M,4.7,M,,*58_
5,2,240,240,0,0.000000,-92,255_$GNGGA,182625.00,0438.09669,N,07404.10455,W,1,12,0.58,2596.3,M,4.7,M,,*51_
5,2,240,240,0,0.000000,-93,255_$GNGGA,182544.00,0438.09648,N,07404.10454,W,1,12,0.56,2597.1,M,4.7,M,,*5A_
5,2,240,240,0,0.000000,-91,255_$GNGGA,182508.00,0438.09662,N,07404.10440,W,1,12,0.53,2597.2,M,4.7,M,,*59_
5,2,240,240,0,0.000000,-92,255_$GNGGA,182427.00,0438.09694,N,07404.10452,W,1,12,0.58,2597.5,M,4.7,M,,*53_
5,2,240,240,0,0.000000,-92,255_$GNGGA,182346.00,0438.09647,N,07404.10457,W,1,12,0.55,2597.6,M,4.7,M,,*56_
5,2,240,240,0,0.000000,-96,255_$GNGGA,182305.00,0438.09652,N,07404.10400,W,1,12,0.55,2596.2,M,4.7,M,,*52_
5,2,240,240,0,0.000000,-91,255_$GNGGA,182223.00,0438.09667,N,07404.10380,W,1,12,0.53,2597.3,M,4.7,M,,*58_
5,2,240,240,0,0.000000,-93,255_$GNGGA,182142.00,0438.09705,N,07404.10437,W,1,12,0.55,2597.1,M,4.7,M,,*56_
5,2,240,240,0,0.000000,-92,255_$GNGGA,182056.00,0438.09685,N,07404.10474,W,1,12,0.53,2598.1,M,4.7,M,,*55_
5,2,240,240,0,0.000000,-92,255_$GNGGA,182017.00,0438.09645,N,07404.10458,W,1,12,0.56,2599.8,M,4.7,M,,*5F_
5,2,240,240,0,0.000000,-93,255_$GNGGA,181933.00,0438.09671,N,07404.10510,W,1,12,0.56,2599.4,M,4.7,M,,*55_
5,2,240,240,0,0.000000,-91,255_$GNGGA,181852.00,0438.09700,N,07404.10535,W,1,12,0.51,2595.8,M,4.7,M,,*54_
5,2,240,240,0,0.000000,-91,255_$GNGGA,181811.00,0438.09742,N,07404.10596,W,1,12,0.50,2596.4,M,4.7,M,,*52_
5,2,240,240,0,0.000000,-92,255_$GNGGA,181729.00,0438.09757,N,07404.10585,W,1,12,0.56,2597.6,M,4.7,M,,*55_
5,2,240,240,0,0.000000,-93,255_$GNGGA,181646.00,0438.09733,N,07404.10550,W,1,12,0.53,2598.3,M,4.7,M,,*58_
5,2,240,240,0,0.000000,-93,255_$GNGGA,181610.00,0438.09745,N,07404.10573,W,1,12,0.60,2600.5,M,4.7,M,,*5F_
5,2,240,240,0,0.000000,-92,255_$GNGGA,181529.00,0438.09773,N,07404.10564,W,1,12,0.51,2600.7,M,4.7,M,,*55_
5,2,240,240,0,0.000000,-94,255_$GNGGA,181449.00,0438.09740,N,07404.10553,W,1,12,0.52,2600.8,M,4.7,M,,*5A_
5,2,240,240,0,0.000000,-92,255_$GNGGA,181408.00,0438.09723,N,07404.10526,W,1,12,0.52,2602.6,M,4.7,M,,*54_
5,2,240,240,0,0.000000,-91,255_$GNGGA,181325.00,0438.09722,N,07404.10498,W,1,12,0.51,2605.6,M,4.7,M,,*5D_
5,2,240,240,0,0.000000,-92,255_$GNGGA,181244.00,0438.09734,N,07404.10490,W,1,12,0.51,2604.8,M,4.7,M,,*5B_
5,2,240,240,0,0.000000,-92,255_$GNGGA,181203.00,0438.09756,N,07404.10496,W,1,12,0.51,2602.6,M,4.7,M,,*52_
5,2,240,240,0,0.000000,-94,255_$GNGGA,181122.00,0438.09726,N,07404.10464,W,1,12,0.53,2598.5,M,4.7,M,,*59_
5,2,240,240,0,0.000000,-93,255_$GNGGA,181040.00,0438.09770,N,07404.10490,W,1,12,0.52,2598.6,M,4.7,M,,*56_
5,2,240,240,0,0.000000,-93,255_$GNGGA,181000.00,0438.09783,N,07404.10585,W,1,12,0.48,2597.8,M,4.7,M,,*51_
5,2,240,240,0,0.000000,-92,255_$GNGGA,180919.00,0438.09755,N,07404.10603,W,1,12,0.51,2596.9,M,4.7,M,,*5F_
5,2,240,240,0,0.000000,-93,255_$GNGGA,180834.00,0438.09731,N,07404.10516,W,1,12,0.55,2599.9,M,4.7,M,,*5F_
5,2,240,240,0,0.000000,-93,255_$GNGGA,180754.00,0438.09727,N,07404.10567,W,1,12,0.49,2597.7,M,4.7,M,,*5A_
5,2,240,240,0,0.000000,-47,255_$GNGGA,180713.00,0438.09732,N,07404.10632,W,1,12,0.50,2595.7,M,4.7,M,,*54_
5,2,240,240,0,0.000000,-93,255_$GNGGA,180633.00,0438.09718,N,07404.10658,W,1,12,0.53,2593.4,M,4.7,M,,*55_
5,2,240,240,0,0.000000,-93,255_$GNGGA,180552.00,0438.09769,N,07404.10707,W,1,12,0.55,2593.7,M,4.7,M,,*59_
5,2,240,240,0,0.000000,-91,255_$GNGGA,180511.00,0438.09742,N,07404.10567,W,1,12,0.59,2594.8,M,4.7,M,,*57_
5,2,240,240,0,0.000000,-92,255_$GNGGA,180431.00,0438.09779,N,07404.10549,W,1,12,0.48,2594.1,M,4.7,M,,*59_
5,2,240,240,0,0.000000,-94,255_$GNGGA,180350.00,0438.09771,N,07404.10591,W,1,12,0.49,2596.4,M,4.7,M,,*52_
5,2,240,240,0,0.000000,-92,255_$GNGGA,180310.00,0438.09752,N,07404.10611,W,1,12,0.48,2595.5,M,4.7,M,,*5F_
5,2,240,240,0,0.000000,-92,255_$GNGGA,180229.00,0438.09730,N,07404.10589,W,1,12,0.51,2595.1,M,4.7,M,,*5E_
5,2,240,240,0,0.000000,-95,255_$GNGGA,180147.00,0438.09755,N,07404.10589,W,1,12,0.51,2596.1,M,4.7,M,,*55_
5,2,240,240,0,0.000000,-92,255_$GNGGA,180105.00,0438.09781,N,07404.10567,W,1,12,0.54,2601.1,M,4.7,M,,*52_
5,2,240,240,0,0.000000,-94,255_$GNGGA,180024.00,0438.09749,N,07404.10534,W,1,12,0.51,2600.8,M,4.7,M,,*5F_
5,2,240,240,0,0.000000,-96,255_$GNGGA,175943.00,0438.09744,N,07404.10602,W,1,12,0.50,2600.1,M,4.7,M,,*5E_
5,2,240,240,0,0.000000,-94,255_$GNGGA,175902.00,0438.09766,N,07404.10603,W,1,12,0.51,2603.4,M,4.7,M,,*5D_
5,2,240,240,0,0.000000,-93,255_$GNGGA,175821.00,0438.09763,N,07404.10590,W,1,12,0.50,2607.0,M,4.7,M,,*50_
5,2,240,240,0,0.000000,-95,255_$GNGGA,175740.00,0438.09761,N,07404.10580,W,1,12,0.55,2607.1,M,4.7,M,,*5F_
5,2,240,240,0,0.000000,-94,255_$GNGGA,175659.00,0438.09745,N,07404.10585,W,1,12,0.52,2603.7,M,4.7,M,,*50_
5,2,240,240,0,0.000000,-92,255_$GNGGA,175618.00,0438.09745,N,07404.10579,W,1,12,0.52,2600.9,M,4.7,M,,*5B_
5,2,240,240,0,0.000000,-92,255_$GNGGA,175538.00,0438.09739,N,07404.10519,W,1,12,0.49,2603.6,M,4.7,M,,*51_
5,2,240,240,0,0.000000,-94,255_$GNGGA,175457.00,0438.09705,N,07404.10555,W,1,12,0.49,2603.0,M,4.7,M,,*58_
5,2,240,240,0,0.000000,-95,255_$GNGGA,175416.00,0438.09699,N,07404.10529,W,1,12,0.48,2602.3,M,4.7,M,,*51_
5,2,240,240,0,0.000000,-91,255_$GNGGA,175335.00,0438.09716,N,07404.10526,W,1,12,0.53,2605.0,M,4.7,M,,*50_
5,2,240,240,0,0.000000,-93,255_$GNGGA,175253.00,0438.09772,N,07404.10534,W,1,12,0.49,2609.4,M,4.7,M,,*53_
5,2,240,240,0,0.000000,-91,255_$GNGGA,175212.00,0438.09779,N,07404.10569,W,1,12,0.54,2607.1,M,4.7,M,,*52_
5,2,240,240,0,0.000000,-94,255_$GNGGA,175131.00,0438.09747,N,07404.10532,W,1,12,0.51,2602.6,M,4.7,M,,*54_
5,2,240,240,0,0.000000,-91,255_$GNGGA,175051.00,0438.09704,N,07404.10509,W,1,12,0.52,2599.5,M,4.7,M,,*5D_
5,2,240,240,0,0.000000,-92,255_$GNGGA,175010.00,0438.09710,N,07404.10497,W,1,12,0.50,2598.7,M,4.7,M,,*5A_
5,2,240,240,0,0.000000,-93,255_$GNGGA,174927.00,0438.09705,N,07404.10560,W,1,12,0.50,2597.3,M,4.7,M,,*50_
5,2,240,240,0,0.000000,-92,255_$GNGGA,174846.00,0438.09672,N,07404.10650,W,1,12,0.51,2595.4,M,4.7,M,,*53_
5,2,240,240,0,0.000000,-91,255_$GNGGA,174805.00,0438.09647,N,07404.10624,W,1,12,0.52,2598.8,M,4.7,M,,*53_
5,2,240,240,0,0.000000,-96,255_$GNGGA,174724.00,0438.09632,N,07404.10465,W,1,12,0.47,2603.1,M,4.7,M,,*56_
5,2,240,240,0,0.000000,-92,255_$GNGGA,174643.00,0438.09611,N,07404.10480,W,1,12,0.50,2602.3,M,4.7,M,,*59_
5,2,240,240,0,0.000000,-93,255_$GNGGA,174558.00,0438.09644,N,07404.10507,W,1,12,0.51,2603.9,M,4.7,M,,*54_
5,2,240,240,0,0.000000,-94,255_$GNGGA,174517.00,0438.09634,N,07404.10518,W,1,12,0.51,2604.1,M,4.7,M,,*59_
5,2,240,240,0,0.000000,-92,255_$GNGGA,174437.00,0438.09642,N,07404.10574,W,1,12,0.51,2601.2,M,4.7,M,,*57_
5,2,240,240,0,0.000000,-92,255_$GNGGA,174357.00,0438.09684,N,07404.10569,W,1,12,0.48,2604.2,M,4.7,M,,*5D_
5,2,240,240,0,0.000000,-92,255_$GNGGA,174316.00,0438.09591,N,07404.10563,W,1,12,0.49,2603.0,M,4.7,M,,*51_
5,2,240,240,0,0.000000,-94,255_$GNGGA,174235.00,0438.09565,N,07404.10510,W,1,12,0.51,2599.7,M,4.7,M,,*50_
5,2,240,240,0,0.000000,-48,255_$GNGGA,174154.00,0438.09592,N,07404.10512,W,1,12,0.48,2600.5,M,4.7,M,,*57_
5,2,240,240,0,0.000000,-93,255_$GNGGA,174113.00,0438.09625,N,07404.10511,W,1,12,0.50,2600.8,M,4.7,M,,*5C_
5,2,240,240,0,0.000000,-93,255_$GNGGA,174034.00,0438.09587,N,07404.10482,W,1,12,0.48,2603.3,M,4.7,M,,*59_
5,2,240,240,0,0.000000,-93,255_$GNGGA,173954.00,0438.09624,N,07404.10529,W,1,12,0.51,2603.7,M,4.7,M,,*57_
5,2,240,240,0,0.000000,-92,255_$GNGGA,173914.00,0438.09625,N,07404.10484,W,1,12,0.54,2604.1,M,4.7,M,,*50_
5,2,240,240,0,0.000000,-92,255_$GNGGA,173833.00,0438.09615,N,07404.10463,W,1,12,0.56,2598.7,M,4.7,M,,*5C_
5,2,240,240,0,0.000000,-91,255_$GNGGA,173752.00,0438.09609,N,07404.10524,W,1,12,0.51,2593.6,M,4.7,M,,*56_
5,2,240,240,0,0.000000,-94,255_$GNGGA,173711.00,0438.09670,N,07404.10598,W,1,12,0.53,2600.1,M,4.7,M,,*54_
5,2,240,240,0,0.000000,-92,255_$GNGGA,173631.00,0438.09706,N,07404.10607,W,1,12,0.49,2602.1,M,4.7,M,,*5B_
5,2,240,240,0,0.000000,-93,255_$GNGGA,173550.00,0438.09664,N,07404.10621,W,1,12,0.51,2600.2,M,4.7,M,,*56_
5,2,240,240,0,0.000000,-93,255_$GNGGA,173508.00,0438.09657,N,07404.10566,W,1,12,0.49,2596.7,M,4.7,M,,*5B_
5,2,240,240,0,0.000000,-93,255_$GNGGA,173426.00,0438.09652,N,07404.10493,W,1,12,0.49,2597.4,M,4.7,M,,*5A_
5,2,240,240,0,0.000000,-94,255_$GNGGA,173345.00,0438.09637,N,07404.10409,W,1,12,0.51,2596.7,M,4.7,M,,*53_
5,2,240,240,0,0.000000,-92,255_$GNGGA,173303.00,0438.09613,N,07404.10408,W,1,12,0.51,2595.7,M,4.7,M,,*55_
5,2,240,240,0,0.000000,-92,255_$GNGGA,173222.00,0438.09592,N,07404.10398,W,1,12,0.50,2594.1,M,4.7,M,,*55_
5,2,240,240,0,0.000000,-96,255_$GNGGA,173141.00,0438.09601,N,07404.10479,W,1,12,0.46,2591.4,M,4.7,M,,*55_
5,2,240,240,0,0.000000,-93,255_$GNGGA,173100.00,0438.09632,N,07404.10593,W,1,12,0.48,2588.5,M,4.7,M,,*52_
5,2,240,240,0,0.000000,-92,255_$GNGGA,173019.00,0438.09607,N,07404.10604,W,1,12,0.49,2588.4,M,4.7,M,,*50_
5,2,240,240,0,0.000000,-92,255_$GNGGA,172938.00,0438.09621,N,07404.10582,W,1,12,0.50,2590.4,M,4.7,M,,*53_
5,2,240,240,0,0.000000,-92,255_$GNGGA,172858.00,0438.09653,N,07404.10633,W,1,12,0.47,2592.6,M,4.7,M,,*5E_
5,2,240,240,0,0.000000,-94,255_$GNGGA,172817.00,0438.09670,N,07404.10628,W,1,12,0.52,2595.5,M,4.7,M,,*5E_
5,2,240,240,0,0.000000,-92,255_$GNGGA,172737.00,0438.09662,N,07404.10581,W,1,12,0.49,2595.7,M,4.7,M,,*58_
5,2,240,240,0,0.000000,-94,255_$GNGGA,172656.00,0438.09700,N,07404.10640,W,1,12,0.47,2597.5,M,4.7,M,,*5B_
5,2,240,240,0,0.000000,-91,255_$GNGGA,172615.00,0438.09711,N,07404.10633,W,1,12,0.50,2599.4,M,4.7,M,,*51_
5,2,240,240,0,0.000000,-92,255_$GNGGA,172534.00,0438.09721,N,07404.10680,W,1,12,0.62,2597.8,M,4.7,M,,*59_
5,2,240,240,0,0.000000,-94,255_$GNGGA,172453.00,0438.09694,N,07404.10594,W,1,12,0.49,2597.6,M,4.7,M,,*57_
5,2,240,240,0,0.000000,-95,255_$GNGGA,172412.00,0438.09691,N,07404.10548,W,1,12,0.49,2596.9,M,4.7,M,,*58_
5,2,240,240,0,0.000000,-94,255_$GNGGA,172332.00,0438.09669,N,07404.10548,W,1,12,0.56,2594.9,M,4.7,M,,*56_
5,2,240,240,0,0.000000,-93,255_$GNGGA,172251.00,0438.09629,N,07404.10480,W,1,12,0.46,2596.2,M,4.7,M,,*5B_
5,2,240,240,0,0.000000,-93,255_$GNGGA,172210.00,0438.09660,N,07404.10477,W,1,12,0.54,2598.0,M,4.7,M,,*54_
5,2,240,240,0,0.000000,-91,255_$GNGGA,172129.00,0438.09690,N,07404.10404,W,1,12,0.48,2601.5,M,4.7,M,,*5D_
5,2,240,240,0,0.000000,-94,255_$GNGGA,172048.00,0438.09659,N,07404.10365,W,1,12,0.52,2600.7,M,4.7,M,,*56_
5,2,240,240,0,0.000000,-93,255_$GNGGA,172007.00,0438.09656,N,07404.10360,W,1,12,0.52,2600.0,M,4.7,M,,*50_
5,2,240,240,0,0.000000,-94,255_$GNGGA,171925.00,0438.09666,N,07404.10356,W,1,12,0.54,2598.8,M,4.7,M,,*50_
5,2,240,240,0,0.000000,-93,255_$GNGGA,171844.00,0438.09682,N,07404.10417,W,1,12,0.55,2602.5,M,4.7,M,,*52_
5,2,240,240,0,0.000000,-95,255_$GNGGA,171803.00,0438.09677,N,07404.10526,W,1,12,0.55,2601.3,M,4.7,M,,*5D_
5,2,240,240,0,0.000000,-94,255_$GNGGA,171722.00,0438.09663,N,07404.10606,W,1,12,0.51,2601.5,M,4.7,M,,*57_
5,2,240,240,0,0.000000,-91,255_$GNGGA,171640.00,0438.09669,N,07404.10628,W,1,12,0.51,2600.3,M,4.7,M,,*53_
5,2,240,240,0,0.000000,-94,255_$GNGGA,171559.00,0438.09675,N,07404.10587,W,1,12,0.48,2596.7,M,4.7,M,,*53_
5,2,240,240,0,0.000000,-93,255_$GNGGA,171518.00,0438.09713,N,07404.10544,W,1,12,0.48,2594.4,M,4.7,M,,*59_
5,2,240,240,0,0.000000,-94,255_$GNGGA,171438.00,0438.09740,N,07404.10560,W,1,12,0.54,2593.0,M,4.7,M,,*54_
5,2,240,240,0,0.000000,-92,255_$GNGGA,171358.00,0438.09730,N,07404.10574,W,1,12,0.52,2594.7,M,4.7,M,,*51_
5,2,240,240,0,0.000000,-92,255_$GNGGA,171317.00,0438.09698,N,07404.10591,W,1,12,0.51,2596.0,M,4.7,M,,*54_
5,2,240,240,0,0.000000,-95,255_$GNGGA,171237.00,0438.09677,N,07404.10577,W,1,12,0.48,2596.2,M,4.7,M,,*54_
5,2,240,240,0,0.000000,-93,255_$GNGGA,171156.00,0438.09744,N,07404.10587,W,1,12,0.51,2595.5,M,4.7,M,,*52_
5,2,240,240,0,0.000000,-91,255_$GNGGA,171115.00,0438.09731,N,07404.10586,W,1,12,0.52,2597.5,M,4.7,M,,*57_
5,2,240,240,0,0.000000,-93,255_$GNGGA,171035.00,0438.09714,N,07404.10554,W,1,12,0.55,2600.0,M,4.7,M,,*53_
5,2,240,240,0,0.000000,-95,255_$GNGGA,170954.00,0438.09713,N,07404.10576,W,1,12,0.49,2600.4,M,4.7,M,,*52_
5,2,240,240,0,0.000000,-92,255_$GNGGA,170913.00,0438.09727,N,07404.10656,W,1,12,0.54,2596.6,M,4.7,M,,*55_
5,2,240,240,0,0.000000,-93,255_$GNGGA,170832.00,0438.09708,N,07404.10626,W,1,12,0.54,2594.6,M,4.7,M,,*5F_
5,2,240,240,0,0.000000,-93,255_$GNGGA,170752.00,0438.09675,N,07404.10622,W,1,12,0.54,2592.8,M,4.7,M,,*51_
5,2,240,240,0,0.000000,-93,255_$GNGGA,170711.00,0438.09664,N,07404.10626,W,1,12,0.50,2590.2,M,4.7,M,,*5E_
5,2,240,240,0,0.000000,-49,255_$GNGGA,170630.00,0438.09697,N,07404.10639,W,1,12,0.54,2587.7,M,4.7,M,,*59_
5,2,240,240,0,0.000000,-92,255_$GNGGA,170550.00,0438.09707,N,07404.10664,W,1,12,0.51,2587.9,M,4.7,M,,*57_
5,2,240,240,0,0.000000,-90,255_$GNGGA,170510.00,0438.09676,N,07404.10587,W,1,12,0.51,2588.4,M,4.7,M,,*58_
5,2,240,240,0,0.000000,-92,255_$GNGGA,170429.00,0438.09679,N,07404.10559,W,1,12,0.52,2587.5,M,4.7,M,,*52_
5,2,240,240,0,0.000000,-93,255_$GNGGA,170353.00,0438.09675,N,07404.10531,W,1,12,0.50,2588.1,M,4.7,M,,*53_
5,2,240,240,0,0.000000,-93,255_$GNGGA,170317.00,0438.09640,N,07404.10518,W,1,12,0.51,2588.3,M,4.7,M,,*5D_
5,2,240,240,0,0.000000,-92,255_$GNGGA,170241.00,0438.09616,N,07404.10505,W,1,12,0.51,2588.6,M,4.7,M,,*55_
5,2,240,240,0,0.000000,-92,255_$GNGGA,170205.00,0438.09607,N,07404.10507,W,1,12,0.50,2590.3,M,4.7,M,,*5A_
5,2,240,240,0,0.000000,-92,255_$GNGGA,170125.00,0438.09608,N,07404.10541,W,1,12,0.50,2591.0,M,4.7,M,,*54_
5,2,240,240,0,0.000000,-92,255_$GNGGA,170045.00,0438.09625,N,07404.10546,W,1,12,0.51,2592.9,M,4.7,M,,*50_
5,2,240,240,0,0.000000,-92,255_$GNGGA,170004.00,0438.09644,N,07404.10570,W,1,12,0.52,2592.6,M,4.7,M,,*5B_
5,2,240,240,0,0.000000,-93,255_$GNGGA,165923.00,0438.09682,N,07404.10654,W,1,12,0.54,2591.3,M,4.7,M,,*5C_
5,2,240,240,0,0.000000,-93,255_$GNGGA,165847.00,0438.09674,N,07404.10694,W,1,12,0.53,2586.9,M,4.7,M,,*51_
5,2,240,240,0,0.000000,-89,255_$GNGGA,165811.00,0438.09671,N,07404.10686,W,1,12,0.51,2585.6,M,4.7,M,,*5A_
5,2,240,240,0,0.000000,-92,255_$GNGGA,165734.00,0438.09658,N,07404.10683,W,1,12,0.51,2586.2,M,4.7,M,,*5B_
5,2,240,240,0,0.000000,-92,255_$GNGGA,165658.00,0438.09676,N,07404.10746,W,1,12,0.52,2585.4,M,4.7,M,,*52_
5,2,240,240,0,0.000000,-91,255_$GNGGA,165623.00,0438.09661,N,07404.10736,W,1,12,0.53,2585.2,M,4.7,M,,*58_
5,2,240,240,0,0.000000,-94,255_$GNGGA,165546.00,0438.09660,N,07404.10664,W,1,12,0.51,2585.2,M,4.7,M,,*5D_
5,2,240,240,0,0.000000,-94,255_$GNGGA,165510.00,0438.09652,N,07404.10661,W,1,12,0.53,2582.8,M,4.7,M,,*55_
5,2,240,240,0,0.000000,-92,255_$GNGGA,165433.00,0438.09660,N,07404.10666,W,1,12,0.53,2582.8,M,4.7,M,,*53_
5,2,240,240,0,0.000000,-92,255_$GNGGA,165357.00,0438.09673,N,07404.10683,W,1,12,0.54,2583.9,M,4.7,M,,*58_
5,2,240,240,0,0.000000,-93,255_$GNGGA,165321.00,0438.09654,N,07404.10636,W,1,12,0.60,2586.2,M,4.7,M,,*5B_
5,2,240,240,0,0.000000,-92,255_$GNGGA,165245.00,0438.09689,N,07404.10676,W,1,12,0.52,2589.0,M,4.7,M,,*50_
5,2,240,240,0,0.000000,-93,255_$GNGGA,165209.00,0438.09687,N,07404.10677,W,1,12,0.52,2590.9,M,4.7,M,,*56_
5,2,240,240,0,0.000000,-93,255_$GNGGA,165133.00,0438.09660,N,07404.10689,W,1,12,0.52,2589.6,M,4.7,M,,*53_
5,2,240,240,0,0.000000,-92,255_$GNGGA,165057.00,0438.09647,N,07404.10698,W,1,12,0.53,2587.5,M,4.7,M,,*59_
5,2,240,240,0,0.000000,-92,255_$GNGGA,165022.00,0438.09618,N,07404.10665,W,1,12,0.52,2586.9,M,4.7,M,,*5F_
5,2,240,240,0,0.000000,-92,255_$GNGGA,164945.00,0438.09599,N,07404.10619,W,1,12,0.53,2584.9,M,4.7,M,,*54_
5,2,240,240,0,0.000000,-90,255_$GNGGA,164909.00,0438.09563,N,07404.10523,W,1,12,0.52,2582.8,M,4.7,M,,*55_
5,2,240,240,0,0.000000,-92,255_$GNGGA,164834.00,0438.09551,N,07404.10540,W,1,12,0.51,2581.4,M,4.7,M,,*52_
5,2,240,240,0,0.000000,-92,255_$GNGGA,164757.00,0438.09559,N,07404.10650,W,1,12,0.51,2580.9,M,4.7,M,,*5E_
5,2,240,240,0,0.000000,-90,255_$GNGGA,164716.00,0438.09581,N,07404.10755,W,1,12,0.51,2580.5,M,4.7,M,,*56_
5,2,240,240,0,0.000000,-96,255_$GNGGA,164636.00,0438.09630,N,07404.10751,W,1,12,0.52,2583.8,M,4.7,M,,*55_
5,2,240,240,0,0.000000,-92,255_$GNGGA,164555.00,0438.09615,N,07404.10709,W,1,12,0.54,2584.4,M,4.7,M,,*54_
5,2,240,240,0,0.000000,-93,255_$GNGGA,164513.00,0438.09590,N,07404.10647,W,1,12,0.51,2585.3,M,4.7,M,,*50_
5,2,240,240,0,0.000000,-92,255_$GNGGA,164434.00,0438.09554,N,07404.10623,W,1,12,0.49,2585.8,M,4.7,M,,*5C_
5,2,240,240,0,0.000000,-91,255_$GNGGA,164353.00,0438.09538,N,07404.10610,W,1,12,0.52,2583.6,M,4.7,M,,*52_
5,2,240,240,0,0.000000,-91,255_$GNGGA,164312.00,0438.09570,N,07404.10633,W,1,12,0.54,2582.3,M,4.7,M,,*58_
5,2,240,240,0,0.000000,-93,255_$GNGGA,164232.00,0438.09584,N,07404.10742,W,1,12,0.51,2581.8,M,4.7,M,,*5A_
5,2,240,240,0,0.000000,-47,255_$GNGGA,164151.00,0438.09568,N,07404.10816,W,1,12,0.50,2580.2,M,4.7,M,,*5A_
5,2,240,240,0,0.000000,-46,255_$GNGGA,164109.00,0438.09587,N,07404.10868,W,1,12,0.52,2581.1,M,4.7,M,,*5F_
5,2,240,240,0,0.000000,-91,255_$GNGGA,164027.00,0438.09572,N,07404.10832,W,1,12,0.58,2581.5,M,4.7,M,,*59_
5,2,240,240,0,0.000000,-91,255_$GNGGA,163946.00,0438.09588,N,07404.10834,W,1,12,0.51,2581.5,M,4.7,M,,*5A_
5,2,240,240,0,0.000000,-93,255_$GNGGA,163905.00,0438.09621,N,07404.10843,W,1,12,0.55,2584.2,M,4.7,M,,*5B_
5,2,240,240,0,0.000000,-46,255_$GNGGA,163824.00,0438.09611,N,07404.10796,W,1,12,0.54,2583.4,M,4.7,M,,*5D_
5,2,240,240,0,0.000000,-92,255_$GNGGA,163743.00,0438.09602,N,07404.10737,W,1,12,0.51,2583.5,M,4.7,M,,*5E_
5,2,240,240,0,0.000000,-92,255_$GNGGA,163701.00,0438.09594,N,07404.10766,W,1,12,0.51,2585.2,M,4.7,M,,*51_
5,2,240,240,0,0.000000,-94,255_$GNGGA,163621.00,0438.09585,N,07404.10816,W,1,12,0.52,2583.9,M,4.7,M,,*54_
5,2,240,240,0,0.000000,-92,255_$GNGGA,163540.00,0438.09601,N,07404.10833,W,1,12,0.59,2584.4,M,4.7,M,,*59_
5,2,240,240,0,0.000000,-95,255_$GNGGA,163500.00,0438.09569,N,07404.10889,W,1,12,0.57,2582.9,M,4.7,M,,*54_
5,2,240,240,0,0.000000,-91,255_$GNGGA,163419.00,0438.09553,N,07404.10939,W,1,12,0.53,2580.6,M,4.7,M,,*57_
5,2,240,240,0,0.000000,-93,255_$GNGGA,163339.00,0438.09555,N,07404.10782,W,1,12,0.52,2581.3,M,4.7,M,,*5F_
5,2,240,240,0,0.000000,-91,255_$GNGGA,163258.00,0438.09551,N,07404.10783,W,1,12,0.56,2581.3,M,4.7,M,,*58_
5,2,240,240,0,0.000000,-93,255_$GNGGA,163218.00,0438.09596,N,07404.10851,W,1,12,0.61,2582.0,M,4.7,M,,*53_
5,2,240,240,0,0.000000,-46,255_$GNGGA,163138.00,0438.09648,N,07404.10841,W,1,12,0.60,2582.9,M,4.7,M,,*5B_
5,2,240,240,0,0.000000,-92,255_$GNGGA,163057.00,0438.09653,N,07404.10776,W,1,12,0.52,2582.2,M,4.7,M,,*58_
5,2,240,240,0,0.000000,-93,255_$GNGGA,163017.00,0438.09650,N,07404.10787,W,1,12,0.55,2581.2,M,4.7,M,,*55_
5,2,240,240,0,0.000000,-92,255_$GNGGA,162937.00,0438.09661,N,07404.10747,W,1,12,0.52,2582.7,M,4.7,M,,*50_
5,2,240,240,0,0.000000,-95,255_$GNGGA,162857.00,0438.09652,N,07404.10735,W,1,12,0.57,2583.1,M,4.7,M,,*50_
5,2,240,240,0,0.000000,-93,255_$GNGGA,162816.00,0438.09630,N,07404.10734,W,1,12,0.52,2581.7,M,4.7,M,,*51_
5,2,240,240,0,0.000000,-92,255_$GNGGA,162736.00,0438.09595,N,07404.10735,W,1,12,0.54,2581.6,M,4.7,M,,*56_
5,2,240,240,0,0.000000,-92,255_$GNGGA,162656.00,0438.09619,N,07404.10676,W,1,12,0.52,2584.0,M,4.7,M,,*55_
5,2,240,240,0,0.000000,-91,255_$GNGGA,162615.00,0438.09637,N,07404.10668,W,1,12,0.56,2585.3,M,4.7,M,,*57_
5,2,240,240,0,0.000000,-93,255_$GNGGA,162535.00,0438.09642,N,07404.10711,W,1,12,0.53,2585.8,M,4.7,M,,*55_
5,2,240,240,0,0.000000,-93,255_$GNGGA,162454.00,0438.09612,N,07404.10729,W,1,12,0.55,2584.0,M,4.7,M,,*52_
5,2,240,240,0,0.000000,-92,255_$GNGGA,162414.00,0438.09585,N,07404.10693,W,1,12,0.55,2584.6,M,4.7,M,,*5D_
5,2,240,240,0,0.000000,-93,255_$GNGGA,162334.00,0438.09557,N,07404.10677,W,1,12,0.55,2586.2,M,4.7,M,,*5B_
5,2,240,240,0,0.000000,-92,255_$GNGGA,162253.00,0438.09535,N,07404.10630,W,1,12,0.52,2585.4,M,4.7,M,,*5E_
5,2,240,240,0,0.000000,-46,255_$GNGGA,162213.00,0438.09552,N,07404.10582,W,1,12,0.53,2589.8,M,4.7,M,,*50_
5,2,240,240,0,0.000000,-93,255_$GNGGA,162133.00,0438.09570,N,07404.10579,W,1,12,0.56,2592.1,M,4.7,M,,*53_
5,2,240,240,0,0.000000,-92,255_$GNGGA,162053.00,0438.09547,N,07404.10614,W,1,12,0.56,2589.1,M,4.7,M,,*52_
5,2,240,240,0,0.000000,-91,255_$GNGGA,162012.00,0438.09533,N,07404.10580,W,1,12,0.54,2590.3,M,4.7,M,,*52_
5,2,240,240,0,0.000000,-94,255_$GNGGA,161932.00,0438.09528,N,07404.10489,W,1,12,0.53,2592.8,M,4.7,M,,*56_
5,2,240,240,0,0.000000,-92,255_$GNGGA,161852.00,0438.09486,N,07404.10521,W,1,12,0.53,2595.2,M,4.7,M,,*5A_
5,2,240,240,0,0.000000,-94,255_$GNGGA,161811.00,0438.09453,N,07404.10522,W,1,12,0.53,2598.6,M,4.7,M,,*5F_
5,2,240,240,0,0.000000,-94,255_$GNGGA,161731.00,0438.09390,N,07404.10560,W,1,12,0.54,2597.8,M,4.7,M,,*5A_
5,2,240,240,0,0.000000,-95,255_$GNGGA,161650.00,0438.09429,N,07404.10600,W,1,12,0.58,2598.9,M,4.7,M,,*5E_
5,2,240,240,0,0.000000,-46,255_$GNGGA,161611.00,0438.09438,N,07404.10508,W,1,12,0.57,2600.5,M,4.7,M,,*51_
5,2,240,240,0,0.000000,-92,255_$GNGGA,161530.00,0438.09434,N,07404.10471,W,1,12,0.57,2601.0,M,4.7,M,,*56_
5,2,240,240,0,0.000000,-93,255_$GNGGA,161448.00,0438.09422,N,07404.10531,W,1,12,0.58,2599.8,M,4.7,M,,*5F_
5,2,240,240,0,0.000000,-93,255_$GNGGA,161406.00,0438.09455,N,07404.10608,W,1,12,0.61,2595.9,M,4.7,M,,*5B_
5,2,240,240,0,0.000000,-89,255_$GNGGA,161325.00,0438.09470,N,07404.10557,W,1,12,0.58,2599.6,M,4.7,M,,*5A_
5,2,240,240,0,0.000000,-93,255_$GNGGA,161245.00,0438.09459,N,07404.10470,W,1,12,0.58,2600.9,M,4.7,M,,*5E_
5,2,240,240,0,0.000000,-91,255_$GNGGA,161205.00,0438.09433,N,07404.10407,W,1,12,0.56,2602.7,M,4.7,M,,*54_
5,2,240,240,0,0.000000,-93,255_$GNGGA,161124.00,0438.09374,N,07404.10363,W,1,12,0.62,2604.6,M,4.7,M,,*55_
5,2,240,240,0,0.000000,-93,255_$GNGGA,161043.00,0438.09374,N,07404.10264,W,1,12,0.53,2606.3,M,4.7,M,,*56_
5,2,240,240,0,0.000000,-91,255_$GNGGA,161002.00,0438.09380,N,07404.10123,W,1,12,0.61,2613.0,M,4.7,M,,*5E_
5,2,240,240,0,0.000000,-94,255_$GNGGA,160921.00,0438.09363,N,07404.10089,W,1,12,0.58,2615.5,M,4.7,M,,*52_
5,2,240,240,0,0.000000,-90,255_$GNGGA,160840.00,0438.09359,N,07404.10111,W,1,12,0.59,2615.4,M,4.7,M,,*5D_
5,2,240,240,0,0.000000,-93,255_$GNGGA,160759.00,0438.09421,N,07404.10226,W,1,12,0.56,2611.2,M,4.7,M,,*58_
5,2,240,240,0,0.000000,-93,255_$GNGGA,160717.00,0438.09404,N,07404.10342,W,1,12,0.56,2604.4,M,4.7,M,,*54_
5,2,240,240,0,0.000000,-93,255_$GNGGA,160636.00,0438.09432,N,07404.10175,W,1,12,0.53,2604.8,M,4.7,M,,*5C_
5,2,240,240,0,0.000000,-92,255_$GNGGA,160554.00,0438.09431,N,07404.10062,W,1,12,0.56,2604.7,M,4.7,M,,*55_
5,2,240,240,0,0.000000,-91,255_$GNGGA,160513.00,0438.09400,N,07404.10204,W,1,12,0.53,2606.4,M,4.7,M,,*52_
5,2,240,240,0,0.000000,-92,255_$GNGGA,160433.00,0438.09397,N,07404.10181,W,1,12,0.58,2600.5,M,4.7,M,,*5A_
5,2,240,240,0,0.000000,-91,255_$GNGGA,160352.00,0438.09437,N,07404.10126,W,1,12,0.54,2601.3,M,4.7,M,,*51_
5,2,240,240,0,0.000000,-91,255_$GNGGA,160311.00,0438.09455,N,07404.10160,W,1,12,0.56,2600.8,M,4.7,M,,*58_
5,2,240,240,0,0.000000,-92,255_$GNGGA,160230.00,0438.09464,N,07404.10253,W,1,12,0.54,2600.1,M,4.7,M,,*50_
5,2,240,240,0,0.000000,-92,255_$GNGGA,160150.00,0438.09422,N,07404.10284,W,1,12,0.57,2598.7,M,4.7,M,,*5A_
5,2,240,240,0,0.000000,-88,255_$GNGGA,160109.00,0438.09465,N,07404.10366,W,1,12,0.59,2599.6,M,4.7,M,,*56_
5,2,240,240,0,0.000000,-91,255_$GNGGA,160028.00,0438.09512,N,07404.10395,W,1,12,0.58,2596.6,M,4.7,M,,*57_
5,2,240,240,0,0.000000,-92,255_$GNGGA,155947.00,0438.09541,N,07404.10423,W,1,12,0.61,2597.3,M,4.7,M,,*53_
5,2,240,240,0,0.000000,-92,255_$GNGGA,155906.00,0438.09533,N,07404.10477,W,1,12,0.57,2599.1,M,4.7,M,,*5B_
5,2,240,240,0,0.000000,-92,255_$GNGGA,155825.00,0438.09520,N,07404.10532,W,1,12,0.61,2600.2,M,4.7,M,,*5C_
5,2,240,240,0,0.000000,-93,255_$GNGGA,155745.00,0438.09550,N,07404.10568,W,1,12,0.59,2599.8,M,4.7,M,,*5F_
5,2,240,240,0,0.000000,-93,255_$GNGGA,155704.00,0438.09520,N,07404.10526,W,1,12,0.59,2600.9,M,4.7,M,,*55_
5,2,240,240,0,0.000000,-92,255_$GNGGA,155623.00,0438.09492,N,07404.10452,W,1,12,0.57,2602.9,M,4.7,M,,*57_
5,2,240,240,0,0.000000,-92,255_$GNGGA,155543.00,0438.09477,N,07404.10430,W,1,12,0.59,2602.2,M,4.7,M,,*58_
5,2,240,240,0,0.000000,-95,255_$GNGGA,155502.00,0438.09487,N,07404.10354,W,1,12,0.58,2600.9,M,4.7,M,,*5F_
5,2,240,240,0,0.000000,-91,255_$GNGGA,155421.00,0438.09513,N,07404.10328,W,1,12,0.57,2602.4,M,4.7,M,,*58_
5,2,240,240,0,0.000000,-94,255_$GNGGA,155339.00,0438.09529,N,07404.10365,W,1,12,0.58,2599.0,M,4.7,M,,*5C_
5,2,240,240,0,0.000000,-92,255_$GNGGA,155258.00,0438.09527,N,07404.10426,W,1,12,0.58,2598.4,M,4.7,M,,*51_
5,2,240,240,0,0.000000,-92,255_$GNGGA,155216.00,0438.09527,N,07404.10526,W,1,12,0.58,2597.2,M,4.7,M,,*53_
5,2,240,240,0,0.000000,-92,255_$GNGGA,155135.00,0438.09495,N,07404.10461,W,1,12,0.57,2598.6,M,4.7,M,,*5F_
5,2,240,240,0,0.000000,-95,255_$GNGGA,155054.00,0438.09434,N,07404.10406,W,1,12,0.57,2600.6,M,4.7,M,,*51_
5,2,240,240,0,0.000000,-93,255_$GNGGA,155013.00,0438.09471,N,07404.10358,W,1,12,0.61,2606.9,M,4.7,M,,*53_
5,2,240,240,0,0.000000,-92,255_$GNGGA,154932.00,0438.09528,N,07404.10372,W,1,12,0.61,2607.9,M,4.7,M,,*5C_
5,2,240,240,0,0.000000,-91,255_$GNGGA,154852.00,0438.09561,N,07404.10377,W,1,12,0.59,2608.6,M,4.7,M,,*58_
5,2,240,240,0,0.000000,-91,255_$GNGGA,154811.00,0438.09574,N,07404.10390,W,1,12,0.59,2605.7,M,4.7,M,,*5E_
5,2,240,240,0,0.000000,-48,255_$GNGGA,154730.00,0438.09567,N,07404.10331,W,1,12,0.60,2604.3,M,4.7,M,,*54_
5,2,240,240,0,0.000000,-92,255_$GNGGA,154650.00,0438.09565,N,07404.10238,W,1,12,0.59,2602.3,M,4.7,M,,*55_
5,2,240,240,0,0.000000,-89,255_$GNGGA,154609.00,0438.09568,N,07404.10160,W,1,12,0.58,2600.1,M,4.7,M,,*5B_
5,2,240,240,0,0.000000,-91,255_$GNGGA,154529.00,0438.09539,N,07404.10193,W,1,12,0.63,2597.1,M,4.7,M,,*57_
5,2,240,240,0,0.000000,-93,255_$GNGGA,154449.00,0438.09522,N,07404.10264,W,1,12,0.58,2597.6,M,4.7,M,,*5E_
5,2,240,240,0,0.000000,-92,255_$GNGGA,154408.00,0438.09575,N,07404.10374,W,1,12,0.61,2598.6,M,4.7,M,,*5C_
5,2,240,240,0,0.000000,-95,255_$GNGGA,154327.00,0438.09591,N,07404.10411,W,1,12,0.58,2599.8,M,4.7,M,,*5D_
5,2,240,240,0,0.000000,-92,255_$GNGGA,154246.00,0438.09602,N,07404.10370,W,1,12,0.59,2603.2,M,4.7,M,,*59_
5,2,240,240,0,0.000000,-92,255_$GNGGA,154205.00,0438.09632,N,07404.10389,W,1,12,0.58,2605.5,M,4.7,M,,*5B_
5,2,240,240,0,0.000000,-92,255_$GNGGA,154124.00,0438.09633,N,07404.10330,W,1,12,0.58,2607.0,M,4.7,M,,*5F_
5,2,240,240,0,0.000000,-92,255_$GNGGA,153716.00,0438.09612,N,07404.10368,W,1,12,0.60,2606.1,M,4.7,M,,*5A_
5,2,240,240,0,0.000000,-93,255_$GNGGA,153635.00,0438.09609,N,07404.10302,W,1,12,0.59,2606.1,M,4.7,M,,*56_
5,2,240,240,0,0.000000,-94,255_$GNGGA,153559.00,0438.09629,N,07404.10270,W,1,12,0.60,2605.7,M,4.7,M,,*56_
5,2,240,240,0,0.000000,-91,255_$GNGGA,153523.00,0438.09651,N,07404.10276,W,1,12,0.63,2605.7,M,4.7,M,,*51_
5,2,240,240,0,0.000000,-94,255_$GNGGA,153447.00,0438.09656,N,07404.10250,W,1,12,0.67,2604.7,M,4.7,M,,*54_
5,2,240,240,0,0.000000,-94,255_$GNGGA,153411.00,0438.09667,N,07404.10257,W,1,12,0.67,2603.5,M,4.7,M,,*57_
5,2,240,240,0,0.000000,-94,255_$GNGGA,153335.00,0438.09661,N,07404.10213,W,1,12,0.71,2602.2,M,4.7,M,,*51_
5,2,240,240,0,0.000000,-93,255_$GNGGA,153259.00,0438.09645,N,07404.10209,W,1,12,0.67,2601.3,M,4.7,M,,*52_
5,2,240,240,0,0.000000,-91,255_$GNGGA,153222.00,0438.09645,N,07404.10272,W,1,12,0.71,2602.1,M,4.7,M,,*54_
5,2,240,240,0,0.000000,-92,255_$GNGGA,153146.00,0438.09659,N,07404.10345,W,1,12,0.78,2600.9,M,4.7,M,,*5E_
5,2,240,240,0,0.000000,-89,255_$GNGGA,153110.00,0438.09618,N,07404.10369,W,1,12,0.78,2595.4,M,4.7,M,,*54_
5,2,240,240,0,0.000000,-88,255_$GNGGA,153034.00,0438.09572,N,07404.10342,W,1,12,0.78,2592.1,M,4.7,M,,*57_
5,2,240,240,0,0.000000,-94,255_$GNGGA,022223.00,0438.09404,N,07404.10427,W,1,12,0.56,2597.6,M,4.7,M,,*5E_
5,2,240,240,0,0.000000,-95,255_$GNGGA,022143.00,0438.09404,N,07404.10410,W,1,12,0.51,2598.3,M,4.7,M,,*52_
5,2,240,240,0,0.000000,-95,255_$GNGGA,022102.00,0438.09410,N,07404.10455,W,1,12,0.60,2597.6,M,4.7,M,,*5B_
5,2,240,240,0,0.000000,-95,255_$GNGGA,022021.00,0438.09444,N,07404.10369,W,1,12,0.55,2596.9,M,4.7,M,,*5A_
5,2,240,240,0,0.000000,-95,255_$GNGGA,021941.00,0438.09469,N,07404.10322,W,1,12,0.58,2595.6,M,4.7,M,,*57_
5,2,240,240,0,0.000000,-96,255_$GNGGA,021900.00,0438.09476,N,07404.10245,W,1,12,0.62,2594.0,M,4.7,M,,*52_
5,2,240,240,0,0.000000,-95,255_$GNGGA,021820.00,0438.09472,N,07404.10325,W,1,12,0.60,2592.9,M,4.7,M,,*5F_
5,2,240,240,0,0.000000,-96,255_$GNGGA,021740.00,0438.09476,N,07404.10330,W,1,12,0.58,2592.2,M,4.7,M,,*56_
5,2,240,240,0,0.000000,-93,255_$GNGGA,021659.00,0438.09469,N,07404.10317,W,1,12,0.53,2592.9,M,4.7,M,,*54_
5,2,240,240,0,0.000000,-94,255_$GNGGA,021618.00,0438.09479,N,07404.10303,W,1,12,0.59,2592.8,M,4.7,M,,*5E_
5,2,240,240,0,0.000000,-94,255_$GNGGA,021536.00,0438.09461,N,07404.10288,W,1,12,0.55,2594.9,M,4.7,M,,*51_
5,2,240,240,0,0.000000,-95,255_$GNGGA,021455.00,0438.09448,N,07404.10262,W,1,12,0.63,2595.9,M,4.7,M,,*5E_
5,2,240,240,0,0.000000,-89,255_$GNGGA,021413.00,0438.09442,N,07404.10307,W,1,12,0.53,2594.4,M,4.7,M,,*5B_
5,2,240,240,0,0.000000,-95,255_$GNGGA,021332.00,0438.09487,N,07404.10344,W,1,12,0.59,2594.2,M,4.7,M,,*5D_
5,2,240,240,0,0.000000,-94,255_$GNGGA,021251.00,0438.09473,N,07404.10336,W,1,12,0.59,2596.2,M,4.7,M,,*55_
5,2,240,240,0,0.000000,-95,255_$GNGGA,021210.00,0438.09466,N,07404.10385,W,1,12,0.55,2597.0,M,4.7,M,,*53_
5,2,240,240,0,0.000000,-95,255_$GNGGA,021129.00,0438.09451,N,07404.10415,W,1,12,0.56,2596.8,M,4.7,M,,*5A_
5,2,240,240,0,0.000000,-95,255_$GNGGA,021048.00,0438.09459,N,07404.10509,W,1,12,0.55,2596.3,M,4.7,M,,*50_
5,2,240,240,0,0.000000,-95,255_$GNGGA,021007.00,0438.09455,N,07404.10403,W,1,12,0.70,2597.7,M,4.7,M,,*5E_
5,2,240,240,0,0.000000,-96,255_$GNGGA,020926.00,0438.09433,N,07404.10448,W,1,12,0.53,2596.7,M,4.7,M,,*5A_
5,2,240,240,0,0.000000,-94,255_$GNGGA,020846.00,0438.09455,N,07404.10500,W,1,12,0.56,2595.3,M,4.7,M,,*52_
5,2,240,240,0,0.000000,-95,255_$GNGGA,020806.00,0438.09456,N,07404.10508,W,1,12,0.57,2595.7,M,4.7,M,,*58_
5,2,240,240,0,0.000000,-94,255_$GNGGA,020725.00,0438.09438,N,07404.10560,W,1,12,0.55,2595.5,M,4.7,M,,*50_
5,2,240,240,0,0.000000,-95,255_$GNGGA,020644.00,0438.09455,N,07404.10592,W,1,12,0.65,2595.4,M,4.7,M,,*52_
5,2,240,240,0,0.000000,-95,255_$GNGGA,020603.00,0438.09450,N,07404.10463,W,1,12,0.61,2597.3,M,4.7,M,,*5A_
5,2,240,240,0,0.000000,-94,255_$GNGGA,020522.00,0438.09484,N,07404.10354,W,1,12,0.57,2596.9,M,4.7,M,,*5E_
5,2,240,240,0,0.000000,-94,255_$GNGGA,020442.00,0438.09484,N,07404.10304,W,1,12,0.65,2596.0,M,4.7,M,,*54_
5,2,240,240,0,0.000000,-95,255_$GNGGA,020401.00,0438.09455,N,07404.10323,W,1,12,0.73,2596.0,M,4.7,M,,*5D_
5,2,240,240,0,0.000000,-95,255_$GNGGA,020320.00,0438.09436,N,07404.10361,W,1,12,0.61,2598.0,M,4.7,M,,*57_
5,2,240,240,0,0.000000,-94,255_$GNGGA,020239.00,0438.09449,N,07404.10343,W,1,12,0.61,2599.1,M,4.7,M,,*56_
5,2,240,240,0,0.000000,-95,255_$GNGGA,020158.00,0438.09491,N,07404.10365,W,1,12,0.60,2599.5,M,4.7,M,,*56_
5,2,240,240,0,0.000000,-95,255_$GNGGA,020117.00,0438.09495,N,07404.10334,W,1,12,0.79,2601.2,M,4.7,M,,*50_
5,2,240,240,0,0.000000,-94,255_$GNGGA,020035.00,0438.09453,N,07404.10361,W,1,12,0.60,2602.1,M,4.7,M,,*53_
5,2,240,240,0,0.000000,-95,255_$GNGGA,015954.00,0438.09382,N,07404.10352,W,1,12,0.74,2604.3,M,4.7,M,,*51_
5,2,240,240,0,0.000000,-95,255_$GNGGA,015913.00,0438.09351,N,07404.10374,W,1,12,0.58,2604.8,M,4.7,M,,*5D_
5,2,240,240,0,0.000000,-95,255_$GNGGA,015832.00,0438.09394,N,07404.10417,W,1,12,0.56,2603.9,M,4.7,M,,*5C_
5,2,240,240,0,0.000000,-96,255_$GNGGA,015751.00,0438.09445,N,07404.10446,W,1,12,0.57,2598.5,M,4.7,M,,*55_
5,2,240,240,0,0.000000,-96,255_$GNGGA,015710.00,0438.09459,N,07404.10377,W,1,12,0.56,2597.8,M,4.7,M,,*5B_
5,2,240,240,0,0.000000,-95,255_$GNGGA,015629.00,0438.09481,N,07404.10344,W,1,12,0.65,2597.9,M,4.7,M,,*54_
5,2,240,240,0,0.000000,-94,255_$GNGGA,015549.00,0438.09538,N,07404.10438,W,1,12,0.59,2597.3,M,4.7,M,,*5B_
5,2,240,240,0,0.000000,-94,255_$GNGGA,015508.00,0438.09544,N,07404.10423,W,1,12,0.63,2598.0,M,4.7,M,,*5A_
5,2,240,240,0,0.000000,-94,255_$GNGGA,015428.00,0438.09507,N,07404.10484,W,1,12,0.61,2600.0,M,4.7,M,,*53_
5,2,240,240,0,0.000000,-93,255_$GNGGA,015347.00,0438.09501,N,07404.10465,W,1,12,0.55,2600.8,M,4.7,M,,*5B_
5,2,240,240,0,0.000000,-90,255_$GNGGA,015307.00,0438.09529,N,07404.10428,W,1,12,0.55,2600.8,M,4.7,M,,*5C_
5,2,240,240,0,0.000000,-93,255_$GNGGA,014933.00,0438.09361,N,07404.10314,W,1,12,0.55,2606.0,M,4.7,M,,*5C_
5,2,240,240,0,0.000000,-93,255_$GNGGA,014852.00,0438.09380,N,07404.10352,W,1,12,0.56,2604.9,M,4.7,M,,*5F_
5,2,240,240,0,0.000000,-94,255_$GNGGA,014811.00,0438.09365,N,07404.10362,W,1,12,0.56,2605.1,M,4.7,M,,*59_
5,2,240,240,0,0.000000,-92,255_$GNGGA,014731.00,0438.09359,N,07404.10378,W,1,12,0.56,2606.0,M,4.7,M,,*52_
5,2,240,240,0,0.000000,-93,255_$GNGGA,014650.00,0438.09413,N,07404.10421,W,1,12,0.57,2604.0,M,4.7,M,,*55_
5,2,240,240,0,0.000000,-91,255_$GNGGA,014608.00,0438.09435,N,07404.10455,W,1,12,0.58,2602.9,M,4.7,M,,*5F_
5,2,240,240,0,0.000000,-93,255_$GNGGA,014527.00,0438.09458,N,07404.10451,W,1,12,0.58,2602.6,M,4.7,M,,*51_
5,2,240,240,0,0.000000,-94,255_$GNGGA,014447.00,0438.09494,N,07404.10451,W,1,12,0.55,2601.9,M,4.7,M,,*57_
5,2,240,240,0,0.000000,-91,255_$GNGGA,014407.00,0438.09461,N,07404.10443,W,1,12,0.54,2603.2,M,4.7,M,,*52_
5,2,240,240,0,0.000000,-94,255_$GNGGA,014327.00,0438.09399,N,07404.10384,W,1,12,0.52,2606.2,M,4.7,M,,*58_
5,2,240,240,0,0.000000,-93,255_$GNGGA,014246.00,0438.09427,N,07404.10399,W,1,12,0.53,2606.5,M,4.7,M,,*56_
5,2,240,240,0,0.000000,-94,255_$GNGGA,014206.00,0438.09418,N,07404.10450,W,1,12,0.55,2606.5,M,4.7,M,,*5A_
5,2,240,240,0,0.000000,-93,255_$GNGGA,014126.00,0438.09376,N,07404.10442,W,1,12,0.52,2607.3,M,4.7,M,,*57_
5,2,240,240,0,0.000000,-92,255_$GNGGA,014045.00,0438.09328,N,07404.10400,W,1,12,0.51,2608.7,M,4.7,M,,*56_
5,2,240,240,0,0.000000,-92,255_$GNGGA,014004.00,0438.09236,N,07404.10314,W,1,12,0.49,2611.0,M,4.7,M,,*59_
5,2,240,240,0,0.000000,-94,255_$GNGGA,013923.00,0438.09273,N,07404.10357,W,1,12,0.49,2610.6,M,4.7,M,,*53_
5,2,240,240,0,0.000000,-97,255_$GNGGA,013842.00,0438.09354,N,07404.10407,W,1,12,0.54,2608.5,M,4.7,M,,*55_
5,2,240,240,0,0.000000,-92,255_$GNGGA,013802.00,0438.09420,N,07404.10473,W,1,12,0.49,2605.8,M,4.7,M,,*5A_
5,2,240,240,0,0.000000,-94,255_$GNGGA,013721.00,0438.09411,N,07404.10500,W,1,12,0.55,2605.9,M,4.7,M,,*5F_
5,2,240,240,0,0.000000,-97,255_$GNGGA,013641.00,0438.09359,N,07404.10490,W,1,12,0.48,2605.3,M,4.7,M,,*5D_
5,2,240,240,0,0.000000,-96,255_$GNGGA,013600.00,0438.09431,N,07404.10396,W,1,12,0.50,2602.2,M,4.7,M,,*5F_
5,2,240,240,0,0.000000,-94,255_$GNGGA,013519.00,0438.09579,N,07404.10499,W,1,12,0.48,2597.1,M,4.7,M,,*54_
5,2,240,240,0,0.000000,-93,255_$GNGGA,013438.00,0438.09587,N,07404.10490,W,1,12,0.46,2597.4,M,4.7,M,,*55_
5,2,240,240,0,0.000000,-96,255_$GNGGA,013357.00,0438.09629,N,07404.10503,W,1,12,0.50,2596.1,M,4.7,M,,*54_
5,2,240,240,0,0.000000,-93,255_$GNGGA,013316.00,0438.09672,N,07404.10530,W,1,12,0.48,2593.9,M,4.7,M,,*5B_
5,2,240,240,0,0.000000,-92,255_$GNGGA,013234.00,0438.09684,N,07404.10587,W,1,12,0.53,2592.1,M,4.7,M,,*5C_
5,2,240,240,0,0.000000,-93,255_$GNGGA,013153.00,0438.09676,N,07404.10570,W,1,12,0.54,2592.0,M,4.7,M,,*5D_
5,2,240,240,0,0.000000,-47,255_$GNGGA,013112.00,0438.09656,N,07404.10542,W,1,12,0.55,2592.7,M,4.7,M,,*5D_
5,2,240,240,0,0.000000,-92,255_$GNGGA,012856.00,0438.09556,N,07404.10344,W,1,12,0.55,2595.1,M,4.7,M,,*57_
5,2,240,240,0,0.000000,-91,255_$GNGGA,012815.00,0438.09532,N,07404.10303,W,1,12,0.54,2595.1,M,4.7,M,,*50_
5,2,240,240,0,0.000000,-92,255_$GNGGA,012735.00,0438.09542,N,07404.10373,W,1,12,0.55,2594.7,M,4.7,M,,*5B_
5,2,240,240,0,0.000000,-92,255_$GNGGA,012654.00,0438.09538,N,07404.10330,W,1,12,0.51,2595.6,M,4.7,M,,*53_
5,2,240,240,0,0.000000,-91,255_$GNGGA,012615.00,0438.09553,N,07404.10310,W,1,12,0.48,2595.3,M,4.7,M,,*54_
5,2,240,0,0,0.000000,-90,255_$GNGGA,012020.00,0438.09680,N,07404.10529,W,1,12,0.53,2596.7,M,4.7,M,,*58_
5,2,240,240,0,0.000000,-88,255_$GNGGA,012007.00,0438.09673,N,07404.10539,W,1,12,0.49,2597.1,M,4.7,M,,*5C_
5,2,240,0,0,0.000000,-94,255_$GNGGA,011944.00,0438.09644,N,07404.10557,W,1,12,0.50,2596.6,M,4.7,M,,*53_
5,2,240,0,0,0.000000,-88,255_$GNGGA,011904.00,0438.09642,N,07404.10589,W,1,12,0.49,2596.8,M,4.7,M,,*54_
5,2,240,0,0,0.000000,-93,255_$GNGGA,011824.00,0438.09657,N,07404.10603,W,1,12,0.52,2594.8,M,4.7,M,,*5A_
5,2,240,0,0,0.000000,-91,255_$GNGGA,011744.00,0438.09647,N,07404.10542,W,1,12,0.48,2595.9,M,4.7,M,,*5F_
5,0,0,0,0,0,0,0_$ 
