3,1,240,0,0,0.000000,-112,5_$GNGGA,165852.00,0438.09446,N,07404.10445,W,1,12,0.52,2595.1,M,4.7,M,,*53_
3,1,240,0,0,0.000000,-112,5_$GNGGA,165759.00,0438.09476,N,07404.10495,W,1,12,0.57,2593.5,M,4.7,M,,*5E_
3,1,240,0,0,0.000000,-112,5_$GNGGA,165707.00,0438.09469,N,07404.10481,W,1,12,0.51,2593.0,M,4.7,M,,*5D_
3,1,240,0,0,0.000000,-112,5_$GNGGA,165614.00,0438.09445,N,07404.10530,W,1,12,0.54,2592.9,M,4.7,M,,*56_
3,1,240,0,0,0.000000,-112,5_$GNGGA,165522.00,0438.09466,N,07404.10372,W,1,12,0.52,2594.1,M,4.7,M,,*59_
3,1,240,0,0,0.000000,-112,5_$GNGGA,165429.00,0438.09471,N,07404.10415,W,1,12,0.50,2596.3,M,4.7,M,,*51_
3,1,240,0,0,0.000000,-112,5_$GNGGA,165337.00,0438.09448,N,07404.10446,W,1,12,0.58,2597.8,M,4.7,M,,*57_
3,1,240,0,0,0.000000,-113,5_$GNGGA,165245.00,0438.09440,N,07404.10328,W,1,12,0.51,2595.5,M,4.7,M,,*52_
3,1,240,0,0,0.000000,-111,5_$GNGGA,165152.00,0438.09435,N,07404.10403,W,1,12,0.53,2592.6,M,4.7,M,,*5D_
3,1,240,0,0,0.000000,-111,5_$GNGGA,165100.00,0438.09448,N,07404.10333,W,1,12,0.60,2593.5,M,4.7,M,,*56_
3,1,240,0,0,0.000000,-111,5_$GNGGA,165008.00,0438.09442,N,07404.10410,W,1,12,0.56,2593.9,M,4.7,M,,*5A_
3,1,240,0,0,0.000000,-112,5_$GNGGA,164916.00,0438.09444,N,07404.10413,W,1,12,0.63,2592.1,M,4.7,M,,*57_
3,1,240,0,0,0.000000,-112,5_$GNGGA,164823.00,0438.09448,N,07404.10393,W,1,12,0.57,2591.9,M,4.7,M,,*5F_
3,1,240,0,0,0.000000,-112,5_$GNGGA,164731.00,0438.09424,N,07404.10288,W,1,12,0.55,2595.6,M,4.7,M,,*5B_
3,1,240,0,0,0.000000,-111,5_$GNGGA,164638.00,0438.09479,N,07404.10316,W,1,12,0.58,2591.5,M,4.7,M,,*57_
3,1,240,0,0,0.000000,-112,5_$GNGGA,164546.00,0438.09479,N,07404.10276,W,1,12,0.56,2590.8,M,4.7,M,,*58_
3,1,240,0,0,0.000000,-112,5_$GNGGA,164454.00,0438.09472,N,07404.10346,W,1,12,0.63,2591.7,M,4.7,M,,*5B_
3,1,240,0,0,0.000000,-112,5_$GNGGA,164402.00,0438.09451,N,07404.10476,W,1,12,0.61,2591.3,M,4.7,M,,*5B_
3,1,240,0,0,0.000000,-112,5_$GNGGA,164310.00,0438.09467,N,07404.10470,W,1,12,0.61,2592.8,M,4.7,M,,*54_
3,1,240,0,0,0.000000,-113,5_$GNGGA,164218.00,0438.09440,N,07404.10425,W,1,12,0.56,2596.8,M,4.7,M,,*58_
3,1,240,0,0,0.000000,-111,5_$GNGGA,164126.00,0438.09401,N,07404.10324,W,1,12,0.60,2596.9,M,4.7,M,,*51_
3,1,240,0,0,0.000000,-112,5_$GNGGA,164033.00,0438.09392,N,07404.10300,W,1,12,0.61,2591.8,M,4.7,M,,*58_
3,1,240,0,0,0.000000,-111,5_$GNGGA,163941.00,0438.09397,N,07404.10302,W,1,12,0.55,2593.5,M,4.7,M,,*5C_
3,1,240,0,0,0.000000,-113,5_$GNGGA,163848.00,0438.09418,N,07404.10333,W,1,12,0.55,2594.8,M,4.7,M,,*5C_
3,1,240,0,0,0.000000,-113,5_$GNGGA,163755.00,0438.09401,N,07404.10538,W,1,12,0.55,2589.6,M,4.7,M,,*58_
3,1,240,0,0,0.000000,-111,5_$GNGGA,163703.00,0438.09452,N,07404.10750,W,1,12,0.54,2587.2,M,4.7,M,,*5A_
3,1,240,0,0,0.000000,-111,5_$GNGGA,163610.00,0438.09496,N,07404.10740,W,1,12,0.59,2590.1,M,4.7,M,,*58_
3,1,240,0,0,0.000000,-113,5_$GNGGA,163517.00,0438.09522,N,07404.10715,W,1,12,0.64,2588.7,M,4.7,M,,*53_
3,1,240,0,0,0.000000,-111,5_$GNGGA,163424.00,0438.09530,N,07404.10715,W,1,12,0.59,2588.1,M,4.7,M,,*59_
3,1,240,0,0,0.000000,-111,5_$GNGGA,163332.00,0438.09542,N,07404.10690,W,1,12,0.58,2587.2,M,4.7,M,,*5D_
3,1,240,0,0,0.000000,-113,5_$GNGGA,163240.00,0438.09530,N,07404.10660,W,1,12,0.59,2587.2,M,4.7,M,,*52_
3,1,240,0,0,0.000000,-112,5_$GNGGA,163148.00,0438.09484,N,07404.10592,W,1,12,0.59,2586.4,M,4.7,M,,*5E_
3,1,240,0,0,0.000000,-111,5_$GNGGA,163055.00,0438.09474,N,07404.10548,W,1,12,0.52,2587.9,M,4.7,M,,*5C_
3,1,240,0,0,0.000000,-111,5_$GNGGA,163002.00,0438.09490,N,07404.10392,W,1,12,0.54,2593.1,M,4.7,M,,*5E_
3,1,240,0,0,0.000000,-111,5_$GNGGA,162909.00,0438.09487,N,07404.10311,W,1,12,0.55,2593.8,M,4.7,M,,*58_
3,1,240,0,0,0.000000,-112,5_$GNGGA,162817.00,0438.09440,N,07404.10275,W,1,12,0.55,2593.5,M,4.7,M,,*53_
3,1,240,0,0,0.000000,-112,5_$GNGGA,162724.00,0438.09520,N,07404.10399,W,1,12,0.51,2595.3,M,4.7,M,,*5C_
3,1,240,0,0,0.000000,-111,5_$GNGGA,162631.00,0438.09515,N,07404.10444,W,1,12,0.53,2594.3,M,4.7,M,,*5B_
3,1,240,0,0,0.000000,-111,5_$GNGGA,162539.00,0438.09540,N,07404.10654,W,1,12,0.58,2592.0,M,4.7,M,,*5D_
3,1,240,0,0,0.000000,-111,5_$GNGGA,162446.00,0438.09530,N,07404.10676,W,1,12,0.53,2589.3,M,4.7,M,,*51_
3,1,240,0,0,0.000000,-112,5_$GNGGA,162354.00,0438.09547,N,07404.10820,W,1,12,0.56,2587.9,M,4.7,M,,*59_
3,1,240,0,0,0.000000,-112,5_$GNGGA,162302.00,0438.09587,N,07404.10809,W,1,12,0.57,2590.7,M,4.7,M,,*54_
3,1,240,0,0,0.000000,-112,5_$GNGGA,162210.00,0438.09567,N,07404.10784,W,1,12,0.55,2590.9,M,4.7,M,,*5E_
3,1,240,0,0,0.000000,-112,5_$GNGGA,162117.00,0438.09531,N,07404.10769,W,1,12,0.58,2590.1,M,4.7,M,,*5F_
3,1,240,0,0,0.000000,-111,5_$GNGGA,162024.00,0438.09487,N,07404.10715,W,1,12,0.58,2590.6,M,4.7,M,,*5E_
3,1,240,0,0,0.000000,-111,5_$GNGGA,161931.00,0438.09526,N,07404.10775,W,1,12,0.51,2589.7,M,4.7,M,,*5C_
3,1,240,0,0,0.000000,-113,5_$GNGGA,161838.00,0438.09514,N,07404.10748,W,1,12,0.53,2589.7,M,4.7,M,,*59_
3,1,240,0,0,0.000000,-111,5_$GNGGA,161746.00,0438.09540,N,07404.10696,W,1,12,0.52,2589.9,M,4.7,M,,*53_
3,1,240,0,0,0.000000,-111,5_$GNGGA,161653.00,0438.09543,N,07404.10664,W,1,12,0.51,2590.8,M,4.7,M,,*52_
3,1,240,0,0,0.000000,-113,5_$GNGGA,161600.00,0438.09530,N,07404.10663,W,1,12,0.62,2590.2,M,4.7,M,,*5D_
3,1,240,0,0,0.000000,-112,5_$GNGGA,161507.00,0438.09540,N,07404.10733,W,1,12,0.56,2590.4,M,4.7,M,,*5B_
3,1,240,0,0,0.000000,-112,5_$GNGGA,161415.00,0438.09526,N,07404.10777,W,1,12,0.55,2590.5,M,4.7,M,,*5B_
3,1,240,0,0,0.000000,-111,5_$GNGGA,161323.00,0438.09532,N,07404.10602,W,1,12,0.55,2592.2,M,4.7,M,,*5A_
3,1,240,0,0,0.000000,-112,5_$GNGGA,161231.00,0438.09523,N,07404.10656,W,1,12,0.55,2591.7,M,4.7,M,,*5F_
3,1,240,0,0,0.000000,-112,5_$GNGGA,161139.00,0438.09517,N,07404.10672,W,1,12,0.61,2592.4,M,4.7,M,,*52_
3,1,240,0,0,0.000000,-112,5_$GNGGA,161046.00,0438.09517,N,07404.10584,W,1,12,0.61,2590.8,M,4.7,M,,*5F_
3,1,240,0,0,0.000000,-112,5_$GNGGA,160953.00,0438.09496,N,07404.10610,W,1,12,0.62,2587.5,M,4.7,M,,*5D_
3,1,240,0,0,0.000000,-112,5_$GNGGA,160901.00,0438.09526,N,07404.10668,W,1,12,0.60,2588.0,M,4.7,M,,*57_
3,1,240,0,0,0.000000,-114,5_$GNGGA,160809.00,0438.09485,N,07404.10606,W,1,12,0.65,2588.1,M,4.7,M,,*5A_
3,1,240,0,0,0.000000,-112,5_$GNGGA,160717.00,0438.09445,N,07404.10586,W,1,12,0.70,2588.3,M,4.7,M,,*5B_
3,1,240,0,0,0.000000,-111,5_$GNGGA,160624.00,0438.09451,N,07404.10544,W,1,12,0.64,2588.0,M,4.7,M,,*57_
3,1,240,0,0,0.000000,-111,5_$GNGGA,160532.00,0438.09436,N,07404.10537,W,1,12,0.65,2587.2,M,4.7,M,,*5A_
3,1,240,0,0,0.000000,-114,5_$GNGGA,160440.00,0438.09446,N,07404.10484,W,1,12,0.63,2590.5,M,4.7,M,,*57_
3,1,240,0,0,0.000000,-111,5_$GNGGA,160348.00,0438.09418,N,07404.10580,W,1,12,0.62,2589.4,M,4.7,M,,*5E_
3,1,240,0,0,0.000000,-113,5_$GNGGA,160256.00,0438.09442,N,07404.10677,W,1,12,0.62,2585.4,M,4.7,M,,*58_
3,1,240,0,0,0.000000,-111,5_$GNGGA,160203.00,0438.09426,N,07404.10614,W,1,12,0.65,2582.2,M,4.7,M,,*59_
3,1,240,0,0,0.000000,-112,5_$GNGGA,160110.00,0438.09430,N,07404.10579,W,1,12,0.64,2584.1,M,4.7,M,,*53_
3,1,240,0,0,0.000000,-112,5_$GNGGA,160018.00,0438.09437,N,07404.10616,W,1,12,0.56,2584.5,M,4.7,M,,*52_
3,1,240,0,0,0.000000,-111,5_$GNGGA,155926.00,0438.09451,N,07404.10533,W,1,12,0.55,2585.2,M,4.7,M,,*51_
3,1,240,0,0,0.000000,-112,5_$GNGGA,155833.00,0438.09473,N,07404.10305,W,1,12,0.55,2588.5,M,4.7,M,,*5D_
3,1,240,0,0,0.000000,-113,5_$GNGGA,155740.00,0438.09466,N,07404.10195,W,1,12,0.55,2590.5,M,4.7,M,,*50_
3,1,240,0,0,0.000000,-113,5_$GNGGA,155648.00,0438.09468,N,07404.10221,W,1,12,0.57,2592.2,M,4.7,M,,*5C_
3,1,240,0,0,0.000000,-112,5_$GNGGA,155556.00,0438.09426,N,07404.10267,W,1,12,0.56,2589.6,M,4.7,M,,*57_
3,1,240,0,0,0.000000,-113,5_$GNGGA,155504.00,0438.09451,N,07404.10366,W,1,12,0.56,2589.0,M,4.7,M,,*56_
3,1,240,0,0,0.000000,-112,5_$GNGGA,155411.00,0438.09441,N,07404.10372,W,1,12,0.55,2588.9,M,4.7,M,,*5C_
3,1,240,0,0,0.000000,-111,5_$GNGGA,155319.00,0438.09426,N,07404.10298,W,1,12,0.55,2585.8,M,4.7,M,,*5B_
3,1,240,0,0,0.000000,-112,5_$GNGGA,155227.00,0438.09434,N,07404.10324,W,1,12,0.57,2586.8,M,4.7,M,,*53_
3,1,240,0,0,0.000000,-112,5_$GNGGA,155135.00,0438.09460,N,07404.10347,W,1,12,0.55,2588.9,M,4.7,M,,*5A_
3,1,240,0,0,0.000000,-113,5_$GNGGA,155043.00,0438.09477,N,07404.10424,W,1,12,0.56,2591.7,M,4.7,M,,*5B_
3,1,240,0,0,0.000000,-112,5_$GNGGA,154950.00,0438.09467,N,07404.10473,W,1,12,0.59,2593.1,M,4.7,M,,*59_
3,1,240,0,0,0.000000,-111,5_$GNGGA,154858.00,0438.09486,N,07404.10440,W,1,12,0.57,2593.1,M,4.7,M,,*51_
3,1,240,0,0,0.000000,-112,5_$GNGGA,154806.00,0438.09491,N,07404.10382,W,1,12,0.64,2592.9,M,4.7,M,,*5C_
3,1,240,0,0,0.000000,-112,5_$GNGGA,154713.00,0438.09470,N,07404.10383,W,1,12,0.54,2590.4,M,4.7,M,,*55_
3,1,240,0,0,0.000000,-111,5_$GNGGA,154621.00,0438.09491,N,07404.10347,W,1,12,0.58,2591.0,M,4.7,M,,*5B_
3,1,240,0,0,0.000000,-112,5_$GNGGA,154528.00,0438.09495,N,07404.10274,W,1,12,0.56,2591.1,M,4.7,M,,*5B_
3,1,240,0,0,0.000000,-112,5_$GNGGA,154435.00,0438.09523,N,07404.10284,W,1,12,0.59,2591.8,M,4.7,M,,*53_
3,1,240,0,0,0.000000,-112,5_$GNGGA,154343.00,0438.09509,N,07404.10287,W,1,12,0.60,2591.2,M,4.7,M,,*5E_
3,1,240,0,0,0.000000,-111,5_$GNGGA,154251.00,0438.09452,N,07404.10414,W,1,12,0.60,2587.8,M,4.7,M,,*52_
3,1,240,0,0,0.000000,-112,5_$GNGGA,154159.00,0438.09436,N,07404.10380,W,1,12,0.56,2589.2,M,4.7,M,,*50_
3,1,240,0,0,0.000000,-112,5_$GNGGA,154107.00,0438.09438,N,07404.10517,W,1,12,0.61,2592.3,M,4.7,M,,*52_
3,1,240,0,0,0.000000,-112,5_$GNGGA,154016.00,0438.09403,N,07404.10533,W,1,12,0.59,2591.8,M,4.7,M,,*5E_
3,1,240,0,0,0.000000,-113,5_$GNGGA,153923.00,0438.09397,N,07404.10308,W,1,12,0.58,2592.8,M,4.7,M,,*50_
3,1,240,0,0,0.000000,-113,5_$GNGGA,153831.00,0438.09380,N,07404.10216,W,1,12,0.66,2590.0,M,4.7,M,,*5D_
3,1,240,0,0,0.000000,-112,5_$GNGGA,153738.00,0438.09413,N,07404.10199,W,1,12,0.57,2591.5,M,4.7,M,,*54_
3,1,240,0,0,0.000000,-113,5_$GNGGA,153645.00,0438.09431,N,07404.10253,W,1,12,0.56,2591.8,M,4.7,M,,*56_
3,1,240,0,0,0.000000,-113,5_$GNGGA,153553.00,0438.09423,N,07404.10359,W,1,12,0.58,2591.3,M,4.7,M,,*5F_
3,1,240,0,0,0.000000,-113,5_$GNGGA,153501.00,0438.09424,N,07404.10420,W,1,12,0.66,2591.7,M,4.7,M,,*5F_
3,1,240,0,0,0.000000,-111,5_$GNGGA,153408.00,0438.09401,N,07404.10502,W,1,12,0.62,2593.7,M,4.7,M,,*57_
3,1,240,0,0,0.000000,-113,5_$GNGGA,153316.00,0438.09413,N,07404.10423,W,1,12,0.63,2594.9,M,4.7,M,,*56_
3,1,240,0,0,0.000000,-111,5_$GNGGA,153224.00,0438.09441,N,07404.10352,W,1,12,0.69,2595.8,M,4.7,M,,*5A_
3,1,240,0,0,0.000000,-112,5_$GNGGA,153133.00,0438.09427,N,07404.10270,W,1,12,0.52,2597.8,M,4.7,M,,*54_
3,1,240,0,0,0.000000,-111,5_$GNGGA,153040.00,0438.09388,N,07404.10210,W,1,12,0.58,2600.2,M,4.7,M,,*58_
3,1,240,0,0,0.000000,-113,5_$GNGGA,152948.00,0438.09346,N,07404.10064,W,1,12,0.53,2603.0,M,4.7,M,,*51_
3,1,240,0,0,0.000000,-111,5_$GNGGA,152856.00,0438.09321,N,07404.10064,W,1,12,0.54,2603.0,M,4.7,M,,*59_
3,1,240,0,0,0.000000,-113,5_$GNGGA,152803.00,0438.09311,N,07404.10074,W,1,12,0.60,2603.4,M,4.7,M,,*58_
3,1,240,0,0,0.000000,-101,255_$GNGGA,152710.00,0438.09305,N,07404.10110,W,1,12,0.59,2603.0,M,4.7,M,,*5D_
3,1,240,0,0,0.000000,-104,255_$GNGGA,152625.00,0438.09322,N,07404.10111,W,1,12,0.57,2601.8,M,4.7,M,,*5A_
3,1,240,0,0,0.000000,-103,255_$GNGGA,152541.00,0438.09336,N,07404.10165,W,1,12,0.52,2599.7,M,4.7,M,,*55_
3,1,240,0,0,0.000000,-103,255_$GNGGA,152457.00,0438.09349,N,07404.10234,W,1,12,0.52,2596.8,M,4.7,M,,*5C_
3,1,240,0,0,0.000000,-103,255_$GNGGA,152412.00,0438.09350,N,07404.10219,W,1,12,0.58,2595.7,M,4.7,M,,*5C_
3,1,240,0,0,0.000000,-103,255_$GNGGA,152327.00,0438.09351,N,07404.10187,W,1,12,0.57,2593.8,M,4.7,M,,*5E_
3,1,240,0,0,0.000000,-102,255_$GNGGA,152242.00,0438.09310,N,07404.10236,W,1,12,0.58,2595.5,M,4.7,M,,*54_
3,1,240,0,0,0.000000,-104,255_$GNGGA,152157.00,0438.09312,N,07404.10308,W,1,12,0.54,2595.3,M,4.7,M,,*57_
3,1,240,0,0,0.000000,-103,255_$GNGGA,152112.00,0438.09364,N,07404.10267,W,1,12,0.61,2595.7,M,4.7,M,,*5D_
3,1,240,0,0,0.000000,-102,255_$GNGGA,152027.00,0438.09387,N,07404.10464,W,1,12,0.56,2594.3,M,4.7,M,,*53_
3,1,240,0,0,0.000000,-104,255_$GNGGA,151942.00,0438.09334,N,07404.10376,W,1,12,0.58,2596.7,M,4.7,M,,*5E_
3,1,240,0,0,0.000000,-103,255_$GNGGA,151858.00,0438.09329,N,07404.10296,W,1,12,0.57,2598.6,M,4.7,M,,*57_
3,1,240,0,0,0.000000,-103,255_$GNGGA,151813.00,0438.09307,N,07404.10186,W,1,12,0.53,2602.1,M,4.7,M,,*55_
3,1,240,0,0,0.000000,-103,255_$GNGGA,151728.00,0438.09305,N,07404.10111,W,1,12,0.55,2601.9,M,4.7,M,,*53_
3,1,240,0,0,0.000000,-102,255_$GNGGA,151644.00,0438.09304,N,07404.10094,W,1,12,0.55,2600.5,M,4.7,M,,*58_
3,1,240,0,0,0.000000,-103,255_$GNGGA,151559.00,0438.09226,N,07404.10006,W,1,12,0.55,2600.9,M,4.7,M,,*51_
3,1,240,0,0,0.000000,-104,255_$GNGGA,151513.00,0438.09152,N,07404.09913,W,1,12,0.57,2603.1,M,4.7,M,,*53_
3,1,240,0,0,0.000000,-103,255_$GNGGA,151429.00,0438.09194,N,07404.10045,W,1,12,0.51,2603.6,M,4.7,M,,*52_
3,1,240,0,0,0.000000,-102,255_$GNGGA,151344.00,0438.09260,N,07404.10149,W,1,12,0.50,2602.6,M,4.7,M,,*5B_
3,1,240,0,0,0.000000,-103,255_$GNGGA,151259.00,0438.09267,N,07404.10203,W,1,12,0.50,2603.2,M,4.7,M,,*59_
3,1,240,0,0,0.000000,-59,255_$GNGGA,151215.00,0438.09368,N,07404.10333,W,1,12,0.50,2597.6,M,4.7,M,,*57_
3,1,240,0,0,0.000000,-102,255_$GNGGA,151130.00,0438.09440,N,07404.10381,W,1,12,0.49,2594.2,M,4.7,M,,*58_
3,1,240,0,0,0.000000,-103,255_$GNGGA,151045.00,0438.09425,N,07404.10336,W,1,12,0.50,2593.7,M,4.7,M,,*5E_
3,1,240,0,0,0.000000,-103,255_$GNGGA,151001.00,0438.09407,N,07404.10261,W,1,12,0.58,2594.4,M,4.7,M,,*51_
3,1,240,0,0,0.000000,-96,255_$GNGGA,150917.00,0438.09355,N,07404.10293,W,1,12,0.50,2598.0,M,4.7,M,,*53_
3,1,240,0,0,0.000000,-104,255_$GNGGA,150833.00,0438.09335,N,07404.10283,W,1,12,0.51,2598.7,M,4.7,M,,*55_
3,1,240,0,0,0.000000,-103,255_$GNGGA,150748.00,0438.09377,N,07404.10405,W,1,12,0.51,2597.7,M,4.7,M,,*57_
3,1,240,0,0,0.000000,-102,255_$GNGGA,150704.00,0438.09369,N,07404.10485,W,1,12,0.52,2598.0,M,4.7,M,,*53_
3,1,240,0,0,0.000000,-102,255_$GNGGA,150619.00,0438.09428,N,07404.10506,W,1,12,0.52,2593.9,M,4.7,M,,*54_
3,1,240,0,0,0.000000,-103,255_$GNGGA,150534.00,0438.09428,N,07404.10413,W,1,12,0.53,2594.1,M,4.7,M,,*53_
3,1,240,0,0,0.000000,-102,255_$GNGGA,150450.00,0438.09391,N,07404.10357,W,1,12,0.59,2594.8,M,4.7,M,,*51_
3,1,240,0,0,0.000000,-103,255_$GNGGA,150405.00,0438.09418,N,07404.10514,W,1,12,0.52,2593.8,M,4.7,M,,*5A_
3,1,240,0,0,0.000000,-103,255_$GNGGA,150320.00,0438.09393,N,07404.10502,W,1,12,0.52,2595.7,M,4.7,M,,*50_
3,1,240,0,0,0.000000,-103,255_$GNGGA,150236.00,0438.09341,N,07404.10385,W,1,12,0.52,2598.0,M,4.7,M,,*5A_
3,1,240,0,0,0.000000,-103,255_$GNGGA,150151.00,0438.09312,N,07404.10295,W,1,12,0.52,2600.1,M,4.7,M,,*5D_
3,1,240,0,0,0.000000,-102,255_$GNGGA,150106.00,0438.09298,N,07404.10236,W,1,12,0.54,2600.1,M,4.7,M,,*53_
3,1,240,0,0,0.000000,-102,255_$GNGGA,150022.00,0438.09295,N,07404.10208,W,1,12,0.58,2600.0,M,4.7,M,,*59_
3,1,240,0,0,0.000000,-103,255_$GNGGA,145938.00,0438.09352,N,07404.10380,W,1,12,0.57,2596.2,M,4.7,M,,*55_
3,1,240,0,0,0.000000,-103,255_$GNGGA,145853.00,0438.09382,N,07404.10478,W,1,12,0.60,2593.4,M,4.7,M,,*53_
3,1,240,0,0,0.000000,-103,255_$GNGGA,145808.00,0438.09370,N,07404.10480,W,1,12,0.62,2594.0,M,4.7,M,,*56_
3,1,240,0,0,0.000000,-103,255_$GNGGA,145724.00,0438.09346,N,07404.10452,W,1,12,0.61,2595.0,M,4.7,M,,*5F_
3,1,240,0,0,0.000000,-102,255_$GNGGA,145640.00,0438.09326,N,07404.10400,W,1,12,0.54,2596.8,M,4.7,M,,*50_
3,1,240,0,0,0.000000,-103,255_$GNGGA,145555.00,0438.09351,N,07404.10364,W,1,12,0.53,2597.0,M,4.7,M,,*5C_
3,1,240,0,0,0.000000,-103,255_$GNGGA,145511.00,0438.09337,N,07404.10310,W,1,12,0.62,2597.0,M,4.7,M,,*5D_
3,1,240,0,0,0.000000,-105,255_$GNGGA,144422.00,0438.09354,N,07404.10314,W,1,12,0.54,2595.1,M,4.7,M,,*5A_
3,1,240,0,0,0.000000,-104,255_$GNGGA,144338.00,0438.09287,N,07404.10288,W,1,12,0.53,2597.6,M,4.7,M,,*5F_
3,1,240,0,0,0.000000,-106,255_$GNGGA,144259.00,0438.09333,N,07404.10324,W,1,12,0.59,2596.2,M,4.7,M,,*5F_
3,1,240,0,0,0.000000,-105,255_$GNGGA,144220.00,0438.09330,N,07404.10252,W,1,12,0.55,2596.3,M,4.7,M,,*5F_
3,1,240,0,0,0.000000,-102,255_$GNGGA,144134.00,0438.09394,N,07404.10396,W,1,12,0.59,2593.5,M,4.7,M,,*51_
3,1,240,0,0,0.000000,-103,255_$GNGGA,144049.00,0438.09400,N,07404.10365,W,1,12,0.53,2593.3,M,4.7,M,,*50_
3,1,240,0,0,0.000000,-103,255_$GNGGA,144004.00,0438.09458,N,07404.10386,W,1,12,0.52,2592.6,M,4.7,M,,*5C_
3,1,240,0,0,0.000000,-104,255_$GNGGA,143919.00,0438.09474,N,07404.10399,W,1,12,0.54,2592.5,M,4.7,M,,*5B_
3,1,240,0,0,0.000000,-104,255_$GNGGA,143835.00,0438.09442,N,07404.10319,W,1,12,0.61,2592.5,M,4.7,M,,*5F_
3,1,240,0,0,0.000000,-102,255_$GNGGA,143750.00,0438.09435,N,07404.10315,W,1,12,0.63,2592.0,M,4.7,M,,*58_
3,1,240,0,0,0.000000,-103,255_$GNGGA,143705.00,0438.09435,N,07404.10254,W,1,12,0.54,2590.6,M,4.7,M,,*5C_
3,1,240,0,0,0.000000,-102,255_$GNGGA,143620.00,0438.09402,N,07404.10249,W,1,12,0.58,2592.1,M,4.7,M,,*5B_
3,1,240,0,0,0.000000,-103,255_$GNGGA,143535.00,0438.09400,N,07404.10216,W,1,12,0.54,2593.4,M,4.7,M,,*5C_
3,1,240,0,0,0.000000,-104,255_$GNGGA,143449.00,0438.09396,N,07404.10220,W,1,12,0.53,2593.3,M,4.7,M,,*5B_
3,1,240,0,0,0.000000,-102,255_$GNGGA,143405.00,0438.09410,N,07404.10207,W,1,12,0.59,2594.0,M,4.7,M,,*51_
3,1,240,0,0,0.000000,-103,255_$GNGGA,143322.00,0438.09406,N,07404.10232,W,1,12,0.56,2594.4,M,4.7,M,,*59_
3,1,240,0,0,0.000000,-57,255_$GNGGA,143237.00,0438.09457,N,07404.10233,W,1,12,0.61,2594.4,M,4.7,M,,*5D_
3,1,240,0,0,0.000000,-104,255_$GNGGA,143200.00,0438.09468,N,07404.10223,W,1,12,0.64,2594.8,M,4.7,M,,*5D_
3,1,240,0,0,0.000000,-104,255_$GNGGA,143114.00,0438.09464,N,07404.10211,W,1,12,0.59,2594.4,M,4.7,M,,*54_
3,1,240,0,0,0.000000,-103,255_$GNGGA,143029.00,0438.09494,N,07404.10277,W,1,12,0.59,2594.0,M,4.7,M,,*50_
3,1,240,0,0,0.000000,-104,255_$GNGGA,142945.00,0438.09480,N,07404.10315,W,1,12,0.61,2592.5,M,4.7,M,,*5A_
3,1,240,0,0,0.000000,-103,255_$GNGGA,142900.00,0438.09500,N,07404.10408,W,1,12,0.61,2591.2,M,4.7,M,,*5D_
3,1,240,0,0,0.000000,-103,255_$GNGGA,142749.00,0438.09490,N,07404.10355,W,1,12,0.62,2591.7,M,4.7,M,,*5F_
3,0,0,0,0,0,0,0_$ 
