3,2,240,247,18,11.516962,-94,255_$GNGGA,235323.00,0438.09613,N,07404.10020,W,1,12,0.86,2613.2,M,4.7,M,,*5A_
3,2,240,20,108516964,11.581152,-91,255_$GNGGA,235313.00,0438.09610,N,07404.10025,W,1,12,0.71,2613.6,M,4.7,M,,*53_
3,2,240,7,7,2.370642,-91,255_$GNGGA,235304.00,0438.09604,N,07404.10026,W,1,12,0.72,2614.0,M,4.7,M,,*51_
3,2,240,247,18,11.516962,-94,6_$GNGGA,235223.00,0438.09601,N,07404.10054,W,1,12,0.69,2616.4,M,4.7,M,,*59_
3,0,0,0,0,0,0,0_$
3,2,240,7,7,2.370642,-103,6_$GNGGA,235135.00,0438.09583,N,07404.10103,W,1,12,0.63,2613.5,M,4.7,M,,*59_
3,2,240,247,18,11.516962,-94,109_$GNGGA,235131.00,0438.09583,N,07404.10092,W,1,12,0.63,2613.4,M,4.7,M,,*55_
3,2,240,208,208,2.377404,-105,23_$GNGGA,235121.00,0438.09577,N,07404.10065,W,1,12,0.61,2613.0,M,4.7,M,,*51_
3,2,240,20,108516964,11.581152,-94,23_$GNGGA,235107.00,0438.09578,N,07404.10051,W,1,12,0.63,2613.4,M,4.7,M,,*5B_
3,2,240,247,18,11.516962,-91,255_$GNGGA,235055.00,0438.09607,N,07404.10023,W,1,12,0.63,2613.9,M,4.7,M,,*5E_
3,2,240,208,208,2.377404,-103,6_$GNGGA,235046.00,0438.09637,N,07404.09983,W,1,12,0.68,2614.1,M,4.7,M,,*50_
3,2,240,7,7,2.370642,-91,6_$GNGGA,235033.00,0438.09664,N,07404.09955,W,1,12,0.70,2614.2,M,4.7,M,,*55_
3,2,240,20,108516964,11.581152,-94,109_$GNGGA,235019.00,0438.09683,N,07404.09940,W,1,12,0.66,2614.0,M,4.7,M,,*55_
3,2,240,247,18,11.516962,-94,6_$GNGGA,235011.00,0438.09670,N,07404.09963,W,1,12,0.66,2613.6,M,4.7,M,,*51_
3,2,240,208,208,2.377404,-91,255_$GNGGA,234954.00,0438.09643,N,07404.10003,W,1,12,0.65,2612.6,M,4.7,M,,*5D_
3,2,240,247,18,0.000000,-94,255_$GNGGA,234940.00,0438.09649,N,07404.10002,W,1,12,0.67,2612.2,M,4.7,M,,*55_
3,2,240,7,7,2.370642,-91,111_$GNGGA,234934.00,0438.09655,N,07404.10002,W,1,12,0.65,2612.3,M,4.7,M,,*58_
3,2,240,247,18,11.516962,-94,109_$GNGGA,234923.00,0438.09662,N,07404.10008,W,1,12,0.63,2612.5,M,4.7,M,,*50_
3,2,240,208,208,2.377404,-94,255_$GNGGA,234912.00,0438.09658,N,07404.10029,W,1,12,0.68,2612.5,M,4.7,M,,*53_
3,2,240,247,18,0.000000,-94,111_$GNGGA,234855.00,0438.09633,N,07404.10078,W,1,12,0.68,2611.6,M,4.7,M,,*58_
3,2,240,20,108516964,11.581152,-94,109_$GNGGA,234850.00,0438.09624,N,07404.10088,W,1,12,0.61,2611.5,M,4.7,M,,*5E_
3,2,240,7,7,2.370642,-104,255_$GNGGA,234841.00,0438.09611,N,07404.10111,W,1,12,0.61,2610.6,M,4.7,M,,*5B_
3,2,240,247,18,11.516962,119,109_$GNGGA,234828.00,0438.09610,N,07404.10135,W,1,12,0.69,2610.3,M,4.7,M,,*5E_
3,2,240,208,208,2.377404,-102,255_$GNGGA,234812.00,0438.09620,N,07404.10148,W,1,12,0.69,2610.3,M,4.7,M,,*5E_
3,2,240,20,108516964,11.581152,-95,255_$GNGGA,234801.00,0438.09609,N,07404.10177,W,1,12,0.63,2610.4,M,4.7,M,,*56_
3,2,240,247,18,11.516962,-92,255_$GNGGA,234720.00,0438.09669,N,07404.10140,W,1,12,0.66,2614.9,M,4.7,M,,*54_
3,2,240,20,108516964,11.581152,-92,255_$GNGGA,234654.00,0438.09687,N,07404.10099,W,1,12,0.66,2615.2,M,4.7,M,,*59_
3,2,240,247,18,11.516962,-95,255_$GNGGA,234647.00,0438.09675,N,07404.10111,W,1,12,0.66,2615.0,M,4.7,M,,*55_
3,2,240,7,7,2.370642,-103,6_$GNGGA,234639.00,0438.09663,N,07404.10112,W,1,12,0.61,2614.9,M,4.7,M,,*57_
3,2,240,208,208,2.377404,-103,255_$GNGGA,234628.00,0438.09631,N,07404.10127,W,1,12,0.63,2614.8,M,4.7,M,,*55_
3,2,240,247,18,11.516962,-104,23_$GNGGA,234617.00,0438.09615,N,07404.10113,W,1,12,0.70,2614.2,M,4.7,M,,*50_
3,2,240,7,7,2.370642,-95,255_$GNGGA,234602.00,0438.09588,N,07404.10112,W,1,12,0.77,2614.1,M,4.7,M,,*56_
3,2,240,20,108516964,11.581152,-91,109_$GNGGA,234536.00,0438.09523,N,07404.10165,W,1,12,0.61,2613.4,M,4.7,M,,*56_
3,2,240,0,0,0.000000,-91,23_$GNGGA,234447.00,0438.09464,N,07404.10196,W,1,12,0.61,2612.1,M,4.7,M,,*5B_
3,0,0,0,0,0,0,0_$
3,2,240,7,7,2.370642,119,111_$GNGGA,234400.00,0438.09489,N,07404.10212,W,1,12,0.61,2609.3,M,4.7,M,,*5C_
3,2,240,0,0,0.000000,-104,255_$GNGGA,233810.00,0438.09632,N,07404.10162,W,1,12,0.63,2607.7,M,4.7,M,,*58_
3,2,240,20,108516964,11.581152,-94,255_$GNGGA,233730.00,0438.09645,N,07404.10144,W,1,12,0.63,2607.3,M,4.7,M,,*55_
3,2,240,208,208,2.377404,-104,109_$GNGGA,233647.00,0438.09618,N,07404.10261,W,1,12,0.63,2605.1,M,4.7,M,,*58_
3,2,240,0,0,0.000000,-92,109_$GNGGA,233629.00,0438.09651,N,07404.10208,W,1,12,0.63,2605.7,M,4.7,M,,*54_
3,2,240,247,18,11.516962,-103,255_$GNGGA,233617.00,0438.09648,N,07404.10216,W,1,12,0.59,2605.3,M,4.7,M,,*53_
3,2,240,20,108516964,11.581152,-94,109_$GNGGA,233558.00,0438.09632,N,07404.10250,W,1,12,0.60,2604.5,M,4.7,M,,*59_
3,2,240,208,208,2.377404,-88,255_$GNGGA,233542.00,0438.09622,N,07404.10288,W,1,12,0.59,2603.4,M,4.7,M,,*5A_
3,2,240,7,7,2.370642,-104,5_$GNGGA,233532.00,0438.09624,N,07404.10315,W,1,12,0.59,2602.9,M,4.7,M,,*52_
3,2,240,0,0,0.000000,-102,255_$GNGGA,233519.00,0438.09633,N,07404.10360,W,1,12,0.59,2603.1,M,4.7,M,,*56_
3,2,240,0,0,0.000000,-103,255_$GNGGA,233517.00,0438.09635,N,07404.10369,W,1,12,0.59,2603.0,M,4.7,M,,*56_
3,2,240,0,0,0.000000,-103,255_$GNGGA,233459.00,0438.09657,N,07404.10395,W,1,12,0.59,2602.8,M,4.7,M,,*53_
3,0,0,0,0,0,0,0_$
3,0,0,0,0,0,0,0_$
3,2,240,0,0,0.000000,-90,255_$GNGGA,233339.00,0438.09658,N,07404.10327,W,1,12,0.62,2598.1,M,4.7,M,,*55_
3,2,240,0,0,0.000000,-94,255_$GNGGA,233326.00,0438.09669,N,07404.10317,W,1,12,0.61,2596.9,M,4.7,M,,*5F_
3,0,0,0,0,0,0,0_$
3,2,240,0,0,0.000000,-103,255_$GNGGA,233223.00,0438.09690,N,07404.10455,W,1,12,0.61,2593.0,M,4.7,M,,*50_
3,2,240,20,108516964,11.581152,-104,6_$GNGGA,233206.00,0438.09687,N,07404.10410,W,1,12,0.63,2594.2,M,4.7,M,,*57_
3,2,240,0,0,0.000000,-106,109_$GNGGA,233202.00,0438.09686,N,07404.10405,W,1,12,0.63,2594.5,M,4.7,M,,*51_
3,0,0,0,0,0,0,0_$
3,0,0,0,0,0,0,0_$
3,0,0,0,0,0,0,0_$
3,2,240,0,0,0.000000,-104,6_$GNGGA,233017.00,0438.09721,N,07404.10423,W,1,12,0.60,2595.3,M,4.7,M,,*5B_
3,2,240,20,108516964,11.581152,-92,111_$GNGGA,233005.00,0438.09710,N,07404.10385,W,1,12,0.60,2596.5,M,4.7,M,,*54_
3,2,240,247,18,11.516962,-95,255_$GNGGA,233002.00,0438.09707,N,07404.10377,W,1,12,0.60,2596.8,M,4.7,M,,*55_
3,2,240,208,208,2.377404,-103,109_$GNGGA,232947.00,0438.09705,N,07404.10338,W,1,12,0.60,2597.5,M,4.7,M,,*59_
3,0,0,0,0,0,0,0_$
3,0,0,0,0,0,0,0_$
3,0,0,0,0,0,0,0_$
3,2,240,75,75,2.361370,-94,6_$GNGGA,232710.00,0438.09602,N,07404.10335,W,1,12,0.60,2598.2,M,4.7,M,,*56_
3,0,0,0,0,0,0,0_$
3,0,0,0,0,0,0,0_$
3,0,0,0,0,0,0,0_$
3,2,240,7,7,2.370642,-91,255_$GNGGA,232553.00,0438.09634,N,07404.10329,W,1,12,0.60,2598.2,M,4.7,M,,*5B_
3,2,240,208,208,2.377404,-104,255_$GNGGA,231037.00,0438.09685,N,07404.10205,W,1,12,0.56,2592.7,M,4.7,M,,*50_
3,2,240,18,108516962,0.000000,-95,255_$GNGGA,231006.00,0438.09658,N,07404.10211,W,1,12,0.61,2592.8,M,4.7,M,,*5C_
3,0,0,0,0,0,0,0_$
3,0,0,0,0,0,0,0_$
3,2,240,18,108516962,0.000000,-95,255_$GNGGA,230803.00,0438.09685,N,07404.10244,W,1,12,0.68,2591.9,M,4.7,M,,*5B_
3,2,240,0,0,0.000000,-33,255_$GNGGA,230750.00,0438.09695,N,07404.10258,W,1,12,0.59,2591.9,M,4.7,M,,*5C_
3,0,0,0,0,0,0,0_$
3,2,240,18,108516962,0.000000,-96,109_$GNGGA,230650.00,0438.09690,N,07404.10341,W,1,12,0.63,2593.3,M,4.7,M,,*50_
3,2,240,75,75,2.361370,-82,109_$GNGGA,230634.00,0438.09721,N,07404.10352,W,1,12,0.63,2593.4,M,4.7,M,,*5C_
3,2,240,247,18,11.516962,-95,255_$GNGGA,230631.00,0438.09728,N,07404.10353,W,1,12,0.57,2593.1,M,4.7,M,,*53_
3,2,240,20,108516964,11.581152,-95,255_$GNGGA,230625.00,0438.09737,N,07404.10351,W,1,12,0.57,2592.6,M,4.7,M,,*5C_
3,2,240,18,108516962,0.000000,-104,255_$GNGGA,230619.00,0438.09744,N,07404.10343,W,1,12,0.57,2592.2,M,4.7,M,,*50_
3,2,240,7,7,2.370642,-104,255_$GNGGA,230601.00,0438.09753,N,07404.10334,W,1,12,0.62,2591.6,M,4.7,M,,*5E_
3,2,240,208,208,2.377404,-32,109_$GNGGA,230553.00,0438.09751,N,07404.10334,W,1,12,0.63,2591.4,M,4.7,M,,*5B_
3,2,240,8,8,2.369857,-92,5_$GNGGA,230549.00,0438.09750,N,07404.10336,W,1,12,0.63,2591.3,M,4.7,M,,*54_
3,2,240,0,0,0.000000,-92,255_$GNGGA,230542.00,0438.09749,N,07404.10334,W,1,12,0.66,2591.0,M,4.7,M,,*53_
3,2,240,18,108516962,0.000000,-92,5_$GNGGA,230525.00,0438.09743,N,07404.10332,W,1,12,0.66,2590.6,M,4.7,M,,*59_
3,2,240,75,75,2.361370,-75,255_$GNGGA,230459.00,0438.09757,N,07404.10365,W,1,12,0.68,2590.9,M,4.7,M,,*55_
3,0,0,0,0,0,0,0_$
3,2,240,18,108516962,0.000000,-94,255_$GNGGA,230431.00,0438.09767,N,07404.10384,W,1,12,0.60,2591.6,M,4.7,M,,*51_
3,2,240,18,108516962,0.000000,-96,255_$GNGGA,230415.00,0438.09764,N,07404.10375,W,1,12,0.64,2593.3,M,4.7,M,,*59_
3,0,0,0,0,0,0,0_$
3,0,0,0,0,0,0,0_$
3,0,0,0,0,0,0,0_$
3,2,240,18,108516962,0.000000,-96,255_$GNGGA,230242.00,0438.09795,N,07404.10235,W,1,12,0.57,2599.7,M,4.7,M,,*58_
3,2,240,208,208,2.377404,-103,111_$GNGGA,230237.00,0438.09779,N,07404.10248,W,1,12,0.57,2599.5,M,4.7,M,,*50_
3,2,240,247,18,11.516962,-94,255_$GNGGA,230228.00,0438.09756,N,07404.10266,W,1,12,0.54,2599.4,M,4.7,M,,*5D_
3,2,240,7,7,2.370642,-90,109_$GNGGA,230223.00,0438.09745,N,07404.10275,W,1,12,0.54,2599.5,M,4.7,M,,*57_
3,2,240,18,108516962,0.000000,-95,255_$GNGGA,230201.00,0438.09740,N,07404.10298,W,1,12,0.54,2600.1,M,4.7,M,,*56_
3,2,240,20,108516964,11.581152,-106,111_$GNGGA,230155.00,0438.09743,N,07404.10299,W,1,12,0.54,2600.2,M,4.7,M,,*55_
3,2,240,8,8,2.369857,-92,255_$GNGGA,230145.00,0438.09737,N,07404.10329,W,1,12,0.66,2600.1,M,4.7,M,,*5F_
3,2,240,18,108516962,0.000000,-104,109_$GNGGA,230118.00,0438.09703,N,07404.10390,W,1,12,0.70,2600.4,M,4.7,M,,*50_
3,0,0,0,0,0,0,0_$
3,2,240,18,108516962,0.000000,-33,255_$GNGGA,230037.00,0438.09679,N,07404.10417,W,1,12,0.59,2600.9,M,4.7,M,,*5E_
3,2,240,18,108516962,0.000000,-94,255_$GNGGA,230020.00,0438.09675,N,07404.10422,W,1,12,0.67,2601.0,M,4.7,M,,*57_
3,0,0,0,0,0,0,0_$
3,2,240,18,108516962,0.000000,-92,255_$GNGGA,225959.00,0438.09662,N,07404.10425,W,1,12,0.61,_
3,2,240,18,108516962,0.000000,-95,255_$GNGGA,225951.00,0438.09659,N,07404.10417,W,1,12,0.61,2599.8,M,4.7,M,,*58_
3,2,240,18,108516962,0.000000,-94,109_$GNGGA,225934.00,0438.09667,N,07404.10379,W,1,12,0.77,2599.9,M,4.7,M,,*5F_
3,0,0,0,0,0,0,0_$
3,2,240,18,108516962,0.000000,-93,109_$GNGGA,225831.00,0438.09659,N,07404.10264,W,1,12,0.55,2600.4,M,4.7,M,,*55_
3,2,240,0,0,0.000000,-91,109_$GNGGA,225824.00,0438.09654,N,07404.10255,W,1,12,0.55,2600.3,M,4.7,M,,*59_
3,2,240,20,108516964,11.581152,-94,109_$GNGGA,225813.00,0438.09651,N,07404.10224,W,1,12,0.58,2599.4,M,4.7,M,,*57_
3,2,240,18,108516962,0.000000,-105,109_$GNGGA,225808.00,0438.09648,N,07404.10207,W,1,12,0.55,2598.9,M,4.7,M,,*55_
3,2,240,7,7,2.370642,-94,255_$GNGGA,225756.00,0438.09635,N,07404.10180,W,1,12,0.55,2598.0,M,4.7,M,,*5E_
3,2,240,208,208,2.377404,-94,255_$GNGGA,225751.00,0438.09625,N,07404.10189,W,1,12,0.55,2597.6,M,4.7,M,,*58_
3,2,240,18,108516962,0.000000,-96,255_$GNGGA,225747.00,0438.09623,N,07404.10188,W,1,12,0.55,2597.0,M,4.7,M,,*5E_
3,2,240,8,8,2.369857,-32,255_$GNGGA,225741.00,0438.09618,N,07404.10177,W,1,12,0.55,2596.3,M,4.7,M,,*52_
3,2,240,18,108516962,0.000000,-90,255_$GNGGA,225735.00,0438.09615,N,07404.10161,W,1,12,0.55,2595.9,M,4.7,M,,*52_
3,2,240,247,18,11.516962,-34,255_$GNGGA,225728.00,0438.09611,N,07404.10156,W,1,12,0.55,2595.2,M,4.7,M,,*55_
3,2,240,7,7,2.370642,-94,255_$GNGGA,225706.00,0438.09593,N,07404.10068,W,1,12,0.55,2591.8,M,4.7,M,,*52_
3,2,240,18,108516962,0.000000,-104,6_$GNGGA,225433.00,0438.09386,N,07404.10157,W,1,12,0.53,2597.6,M,4.7,M,,*56_
3,0,0,0,0,0,0,0_$
3,0,0,0,0,0,0,0_$
3,2,240,20,108516964,11.581152,-105,109_$GNGGA,225310.00,0438.09387,N,07404.10034,W,1,12,0.53,2595.4,M,4.7,M,,*55_
3,2,240,247,18,0.000000,-105,109_$GNGGA,225241.00,0438.09402,N,07404.10051,W,1,12,0.55,2596.2,M,4.7,M,,*5A_
3,2,240,20,108516964,11.581152,-89,255_$GNGGA,225220.00,0438.09400,N,07404.10055,W,1,12,0.53,2597.0,M,4.7,M,,*5E_
3,2,240,247,18,11.516962,-104,255_$GNGGA,225213.00,0438.09408,N,07404.10057,W,1,12,0.53,2597.4,M,4.7,M,,*50_
3,2,240,0,0,0.000000,-104,6_$GNGGA,225208.00,0438.09411,N,07404.10062,W,1,12,0.59,2597.7,M,4.7,M,,*5D_
3,2,240,247,18,0.000000,-96,255_$GNGGA,225146.00,0438.09417,N,07404.10092,W,1,12,0.54,2597.5,M,4.7,M,,*52_
3,2,240,208,208,2.377404,-104,111_$GNGGA,225139.00,0438.09419,N,07404.10095,W,1,12,0.54,2597.2,M,4.7,M,,*54_
3,2,240,18,108516962,0.000000,-103,111_$GNGGA,225130.00,0438.09416,N,07404.10108,W,1,12,0.54,2596.8,M,4.7,M,,*5C_
3,2,240,247,18,0.000000,-105,5_$GNGGA,225103.00,0438.09380,N,07404.10160,W,1,12,0.52,2595.5,M,4.7,M,,*52_
3,0,0,0,0,0,0,0_$
3,0,0,0,0,0,0,0_$
3,0,0,0,0,0,0,0_$
3,2,240,0,0,0.000000,-96,109_$GNGGA,225021.00,0438.09372,N,07404.10157,W,1,12,0.54,2594.3,M,4.7,M,,*5B_
3,2,240,7,7,2.370642,-104,255_$GNGGA,225013.00,0438.09369,N,07404.10158,W,1,12,0.54,2594.1,M,4.7,M,,*5D_
3,2,240,247,18,0.000000,-105,109_$GNGGA,225009.00,0438.09370,N,07404.10160,W,1,12,0.54,2594.2,M,4.7,M,,*56_
3,2,240,75,75,2.361370,-97,255_$GNGGA,224955.00,0438.09372,N,07404.10165,W,1,12,0.56,2594.6,M,4.7,M,,*56_
3,2,240,247,18,11.516962,-97,255_$GNGGA,224951.00,0438.09377,N,07404.10164,W,1,12,0.54,2594.8,M,4.7,M,,*5A_
3,2,240,7,7,2.370642,-97,255_$GNGGA,224931.00,0438.09370,N,07404.10157,W,1,12,0.54,2595.3,M,4.7,M,,*51_
3,2,240,75,75,2.361370,-96,255_$GNGGA,224916.00,0438.09357,N,07404.10146,W,1,12,0.55,2595.9,M,4.7,M,,*5A_
3,2,240,247,18,11.516962,-96,255_$GNGGA,224912.00,0438.09350,N,07404.10149,W,1,12,0.52,2596.2,M,4.7,M,,*59_
3,2,240,18,108516962,0.000000,-96,255_$GNGGA,224909.00,0438.09346,N,07404.10153,W,1,12,0.52,2596.3,M,4.7,M,,*5E_
3,2,240,7,7,2.370642,-96,255_$GNGGA,224857.00,0438.09353,N,07404.10163,W,1,12,0.52,2597.2,M,4.7,M,,*53_
3,2,240,75,75,2.361370,-97,255_$GNGGA,224840.00,0438.09361,N,07404.10143,W,1,12,0.53,2598.4,M,4.7,M,,*5E_
3,2,240,247,18,11.516962,-97,255_$GNGGA,224835.00,0438.09361,N,07404.10138,W,1,12,0.53,2598.7,M,4.7,M,,*53_
3,0,0,0,0,0,0,0_$
3,0,0,0,0,0,0,0_$
3,2,240,18,108516962,0.000000,-95,255_$GNGGA,224738.00,0438.09376,N,07404.10170,W,1,12,0.52,2597.7,M,4.7,M,,*55_
3,2,240,7,7,2.370642,-97,255_$GNGGA,224724.00,0438.09371,N,07404.10179,W,1,12,0.53,2597.0,M,4.7,M,,*50_
3,2,240,247,18,11.516962,-97,255_$GNGGA,224721.00,0438.09372,N,07404.10177,W,1,12,0.55,2596.9,M,4.7,M,,*56_
3,2,240,75,75,2.361370,-97,255_$GNGGA,224713.00,0438.09369,N,07404.10170,W,1,12,0.53,2596.5,M,4.7,M,,*50_
3,2,240,18,108516962,0.000000,-96,255_$GNGGA,224649.00,0438.09332,N,07404.10117,W,1,12,0.56,2594.3,M,4.7,M,,*50_
3,0,0,0,0,0,0,0_$
3,0,0,0,0,0,0,0_$
3,0,0,0,0,0,0,0_$
3,0,0,0,0,0,0,0_$
3,0,0,0,0,0,0,0_$
3,0,0,0,0,0,0,0_$
3,0,0,0,0,0,0,0_$
3,2,240,7,7,2.370642,-96,255_$GNGGA,224353.00,0438.09389,N,07404.10134,W,1,12,0.52,2596.4,M,4.7,M,,*5E_
3,2,240,8,8,2.369857,-104,255_$GNGGA,224348.00,0438.09388,N,07404.10147,W,1,12,0.52,2596.2,M,4.7,M,,*57_
3,0,0,0,0,0,0,0_$
3,0,0,0,0,0,0,0_$
3,2,240,75,75,2.361370,-97,255_$GNGGA,224214.00,0438.09348,N,07404.10264,W,1,12,0.54,2591.5,M,4.7,M,,*57_
3,0,0,0,0,0,0,0_$
3,2,240,8,8,2.369857,-97,109_$GNGGA,224126.00,0438.09344,N,07404.10381,W,1,12,0.53,2589.6,M,4.7,M,,*5E_
3,2,240,75,75,2.361370,-93,255_$GNGGA,224116.00,0438.09353,N,07404.10381,W,1,12,0.53,2589.9,M,4.7,M,,*54_
3,2,240,208,208,2.377404,-96,109_$GNGGA,224106.00,0438.09364,N,07404.10371,W,1,12,0.53,2590.3,M,4.7,M,,*5C_
3,2,240,98,98,2.370627,-96,255_$GNGGA,224103.00,0438.09366,N,07404.10368,W,1,12,0.59,2590.4,M,4.7,M,,*5E_
3,0,0,0,0,0,0,0_$
3,0,0,0,0,0,0,0_$
3,0,0,0,0,0,0,0_$
3,0,0,0,0,0,0,0_$
3,0,0,0,0,0,0,0_$
3,2,240,20,108516964,11.581152,-96,109_$GNGGA,223723.00,0438.09436,N,07404.10416,W,1,12,0.56,2585.8,M,4.7,M,,*56_
3,2,240,208,208,2.377404,-104,111_$GNGGA,223653.00,0438.09476,N,07404.10404,W,1,12,0.NGSA,A,3$$GAGSV,3,1,09,02,35,262,24AGSV,3,2,05,1,23,25,4SV,3,3,09,36,1_
3,0,0,0,0,0,0,0_$
3,0,0,0,0,0,0,0_$
3,0,0,0,0,0,0,0_$
3,0,0,0,0,0,0,0_$
3,0,0,0,0,0,0,0_$
3,0,0,0,0,0,0,0_$
3,2,240,198,198,11.491078,-98,255_$GNGGA,223434.00,0438.09460,N,07404.10324,W,1,12,0.59,2589.9,M,4.7,M,,*54_
3,2,240,18,108516962,0.000000,-96,109_$GNGGA,223431.00,0438.09456,N,07404.10324,W,1,12,0.58,2589.8,M,4.7,M,,*54_
3,2,240,208,208,2.377404,-96,109_$GNGGA,223424.00,0438.09441,N,07404.10324,W,1,12,0.58,2589.6,M,4.7,M,,*58_
3,2,240,247,18,11.516962,-96,111_$GNGGA,223414.00,0438.09417,N,07404.10313,W,1,12,0.58,2589.1,M,4.7,M,,*5B_
3,2,240,98,98,2.370627,-95,255_$GNGGA,223405.00,0438.09401,N,07404.10303,W,1,12,0.58,2588.6,M,4.7,M,,*5B_
3,2,240,198,198,11.491078,-96,109_$GNGGA,223354.00,0438.09390,N,07404.10296,W,1,12,0.56,2588.2,M,4.7,M,,*50_
3,2,240,18,108516962,0.000000,-95,255_$GNGGA,223351.00,0438.09389,N,07404.10292,W,1,12,0.56,2588.1,M,4.7,M,,*5A_
3,2,240,75,75,2.361370,-97,255_$GNGGA,223345.00,0438.09388,N,07404.10281,W,1,12,0.56,2587.8,M,4.7,M,,*5A_
3,0,0,0,0,0,0,0_$
3,0,0,0,0,0,0,0_$
3,0,0,0,0,0,0,0_$
3,0,0,0,0,0,0,0_$
3,2,240,208,208,2.377404,-97,255_$GNGGA,223156.00,0438.09420,N,07404.10339,W,1,12,0.56,2590.5,M,4.7,M,,*56_
3,0,0,0,0,0,0,0_$
3,0,0,0,0,0,0,0_$
3,2,240,18,108516962,0.000000,-95,255_$GNGGA,223015.00,0438.09391,N,07404.10305,W,1,12,0.56,2589.6,M,4.7,M,,*59_
3,2,240,98,98,2.370627,-95,255_$GNGGA,223011.00,0438.09391,N,07404.10311,W,1,12,0.56,2589.7,M,4.7,M,,*59_
3,2,240,75,75,2.361370,-97,255_$GNGGA,222954.00,0438.09414,N,07404.10323,W,1,12,0.57,2590.7,M,4.7,M,,*52_
3,0,0,0,0,0,0,0_$
3,0,0,0,0,0,0,0_$
3,2,240,75,75,2.361370,-95,255_$GNGGA,222802.00,0438.09403,N,07404.10224,W,1,12,0.56,2590.5,M,4.7,M,,*53_
3,0,0,0,0,0,0,0_$
3,0,0,0,0,0,0,0_$
3,0,0,0,0,0,0,0_$
3,0,0,0,0,0,0,0_$
3,0,0,0,0,0,0,0_$
3,0,0,0,0,0,0,0_$
3,0,0,0,0,0,0,0_$
3,0,0,0,0,0,0,0_$
3,0,0,0,0,0,0,0_$
3,0,0,0,0,0,0,0_$
3,0,0,0,0,0,0,0_$
3,0,0,0,0,0,0,0_$
3,0,0,0,0,0,0,0_$
3,0,0,0,0,0,0,0_$
3,0,0,0,0,0,0,0_$
3,0,0,0,0,0,0,0_$
3,0,0,0,0,0,0,0_$
3,0,0,0,0,0,0,0_$
3,0,0,0,0,0,0,0_$
3,0,0,0,0,0,0,0_$
3,0,0,0,0,0,0,0_$
3,0,0,0,0,0,0,0_$
3,0,0,0,0,0,0,0_$
3,0,0,0,0,0,0,0_$
3,0,0,0,0,0,0,0_$
3,0,0,0,0,0,0,0_$
3,0,0,0,0,0,0,0_$
3,0,0,0,0,0,0,0_$
3,0,0,0,0,0,0,0_$
3,0,0,0,0,0,0,0_$
3,0,0,0,0,0,0,0_$
3,0,0,0,0,0,0,0_$
3,0,0,0,0,0,0,0_$
3,0,0,0,0,0,0,0_$
3,0,0,0,0,0,0,0_$
3,2,240,208,208,2.377404,-104,111_$GNGGA,221559.00,0438.09460,N,07404.10152,W,1,12,0.60,2592.4,M,4.7,M,,*52_
3,2,240,7,7,2.370642,-73,109_$GNGGA,221552.00,0438.09463,N,07404.10150,W,1,12,0.59,2592.6,M,4.7,M,,*50_
3,0,0,0,0,0,0,0_$
3,0,0,0,0,0,0,0_$
3,0,0,0,0,0,0,0_$
3,0,0,0,0,0,0,0_$
3,0,0,0,0,0,0,0_$
3,0,0,0,0,0,0,0_$
3,0,0,0,0,0,0,0_$
3,0,0,0,0,0,0,0_$
3,0,0,0,0,0,0,0_$
3,0,0,0,0,0,0,0_$
3,0,0,0,0,0,0,0_$
3,0,0,0,0,0,0,0_$
3,0,0,0,0,0,0,0_$
3,0,0,0,0,0,0,0_$
3,0,0,0,0,0,0,0_$
3,0,0,0,0,0,0,0_$
3,0,0,0,0,0,0,0_$
3,0,0,0,0,0,0,0_$
3,0,0,0,0,0,0,0_$
3,0,0,0,0,0,0,0_$
3,0,0,0,0,0,0,0_$
3,0,0,0,0,0,0,0_$
3,0,0,0,0,0,0,0_$
3,0,0,0,0,0,0,0_$
3,0,0,0,0,0,0,0_$
3,0,0,0,0,0,0,0_$
3,0,0,0,0,0,0,0_$
3,0,0,0,0,0,0,0_$
3,2,240,20,108516964,11.581152,-88,255_$GNGGA,220622.00,0438.09449,N,07404.10086,W,1,12,0.68,2592.3,M,4.7,M,,*50_
3,0,0,0,0,0,0,0_$
3,0,0,0,0,0,0,0_$
3,0,0,0,0,0,0,0_$
3,0,0,0,0,0,0,0_$
3,0,0,0,0,0,0,0_$
3,0,0,0,0,0,0,0_$
3,0,0,0,0,0,0,0_$
3,0,0,0,0,0,0,0_$
3,0,0,0,0,0,0,0_$
3,0,0,0,0,0,0,0_$
3,0,0,0,0,0,0,0_$
3,0,0,0,0,0,0,0_$
3,0,0,0,0,0,0,0_$
3,0,0,0,0,0,0,0_$
3,0,0,0,0,0,0,0_$
3,0,0,0,0,0,0,0_$
3,0,0,0,0,0,0,0_$
3,0,0,0,0,0,0,0_$
3,0,0,0,0,0,0,0_$
3,0,0,0,0,0,0,0_$
3,0,0,0,0,0,0,0_$
3,0,0,0,0,0,0,0_$
3,0,0,0,0,0,0,0_$
3,0,0,0,0,0,0,0_$
3,0,0,0,0,0,0,0_$
3,2,240,18,108516962,0.000000,-95,255_$GNGGA,215822.00,0438.09616,N,07404.10050,W,1,12,0.60,2592.5,M,4.7,M,,*55_
3,2,240,8,8,2.369857,-95,255_$GNGGA,215818.00,0438.09614,N,07404.10048,W,1,12,0.57,2592.3,M,4.7,M,,*55_
3,2,240,0,0,0.000000,-92,109_$GNGGA,215758.00,0438.09604,N,07404.10064,W,1,12,0.57,2592.2,M,4.7,M,,*50_
3,2,240,0,0,0.000000,-102,255_$GNGGA,215725.00,0438.09519,N,07404.10145,W,1,12,0.55,2591.6,M,4.7,M,,*52_
3,2,240,0,0,0.000000,-104,109_$GNGGA,215653.00,0438.09462,N,07404.10121,W,1,12,0.55,2590.2,M,4.7,M,,*58_
3,2,240,0,0,0.000000,-95,109_$GNGGA,215621.00,0438.09440,N,07404.10099,W,1,12,0.57,2588.9,M,4.7,M,,*5F_
3,2,240,0,0,0.000000,-95,255_$GNGGA,215558.00,0438.09441,N,07404.10097,W,1,12,0.60,2589.3,M,4.7,M,,*52_
3,2,240,0,0,0.000000,-104,109_$GNGGA,215529.00,0438.09431,N,07404.10081,W,1,12,0.57,2588.6,M,4.7,M,,*54_
3,2,240,0,0,0.000000,-103,255_$GNGGA,215503.00,0438.09424,N,07404.10054,W,1,12,0.60,2588.5,M,4.7,M,,*57_
3,2,240,0,0,0.000000,-102,255_$GNGGA,215444.00,0438.09433,N,07404.10070,W,1,12,0.56,2588.8,M,4.7,M,,*5D_
3,2,240,0,0,0.000000,-93,109_$GNGGA,215416.00,0438.09433,N,07404.10140,W,1,12,0.55,2588.4,M,4.7,M,,*57_
3,2,240,0,0,0.000000,-94,109_$GNGGA,215343.00,0438.09385,N,07404.10098,W,1,12,0.55,2586.6,M,4.7,M,,*52_
3,2,240,0,0,0.000000,-104,255_$GNGGA,215303.00,0438.09372,N,07404.10109,W,1,12,0.55,2586.6,M,4.7,M,,*57_
3,2,240,0,0,0.000000,-94,109_$GNGGA,215231.00,0438.09370,N,07404.10106,W,1,12,0.59,2586.7,M,4.7,M,,*57_
3,2,240,0,0,0.000000,-96,109_$GNGGA,215152.00,0438.09367,N,07404.10121,W,1,12,0.58,2586.2,M,4.7,M,,*56_
3,2,240,0,0,0.000000,-105,109_$GNGGA,215121.00,0438.09332,N,07404.10136,W,1,12,0.58,2584.0,M,4.7,M,,*54_
3,2,240,0,0,0.000000,-102,255_$GNGGA,215057.00,0438.09303,N,07404.10147,W,1,12,0.61,2583.0,M,4.7,M,,*5D_
3,2,240,0,0,0.000000,-104,109_$GNGGA,215024.00,0438.09339,N,07404.10187,W,1,12,0.59,2584.1,M,4.7,M,,*51_
3,2,240,0,0,0.000000,-102,255_$GNGGA,214949.00,0438.09349,N,07404.10149,W,1,12,0.59,2582.6,M,4.7,M,,*56_
3,2,240,0,0,0.000000,-104,109_$GNGGA,214918.00,0438.09382,N,07404.10089,W,1,12,0.61,2581.6,M,4.7,M,,*50_
3,2,240,0,0,0.000000,-94,109_$GNGGA,214843.00,0438.09446,N,07404.10039,W,1,12,0.59,2581.4,M,4.7,M,,*52_
3,2,240,0,0,0.000000,-103,255_$GNGGA,214813.00,0438.09429,N,07404.10076,W,1,12,0.61,2580.6,M,4.7,M,,*5D_
3,2,240,0,0,0.000000,-92,109_$GNGGA,214749.00,0438.09396,N,07404.10118,W,1,12,0.64,2579.9,M,4.7,M,,*5B_
3,2,240,0,0,0.000000,-93,109_$GNGGA,214717.00,0438.09359,N,07404.10175,W,1,12,0.56,2579.6,M,4.7,M,,*56_
3,2,240,0,0,0.000000,-95,109_$GNGGA,214649.00,0438.09411,N,07404.10120,W,1,12,0.58,2579.8,M,4.7,M,,*57_
3,2,240,2,2,0.000000,-94,255_$GNGGA,214621.00,0438.09479,N,07404.10117,W,1,12,0.61,2580.7,M,4.7,M,,*50_
3,2,240,2,2,0.000000,-92,255_$GNGGA,214613.00,0438.09485,N,07404.10129,W,1,12,0.61,2580.7,M,4.7,M,,*5F_
3,2,240,2,2,0.000000,-96,6_$GNGGA,214607.00,0438.09492,N,07404.10144,W,1,12,0.61,2580.9,M,4.7,M,,*59_
3,2,240,0,0,0.000000,-94,255_$GNGGA,214603.00,0438.09500,N,07404.10152,W,1,12,0.61,2581.0,M,4.7,M,,*58_
3,2,240,2,2,0.000000,-102,255_$GNGGA,214551.00,0438.09522,N,07404.10178,W,1,12,0.61,2581.5,M,4.7,M,,*51_
3,2,240,2,2,0.000000,-103,255_$GNGGA,214529.00,0438.09564,N,07404.10235,W,1,12,0.58,2582.3,M,4.7,M,,*59_
3,2,240,0,0,0.000000,-93,6_$GNGGA,214522.00,0438.09575,N,07404.10232,W,1,12,0.59,2582.1,M,4.7,M,,*56_
3,2,240,2,2,0.000000,-103,255_$GNGGA,214507.00,0438.09586,N,07404.10204,W,1,12,0.63,2581.9,M,4.7,M,,*5A_
3,2,240,2,2,0.000000,-104,6_$GNGGA,214446.00,0438.09625,N,07404.10160,W,1,12,0.62,2582.3,M,4.7,M,,*5D_
3,2,240,0,0,0.000000,-104,5_$GNGGA,214442.00,0438.09627,N,07404.10170,W,1,12,0.59,2582.4,M,
