2,2,240,0,0,0.000000,-18,255_$GNGGA,210004.00,0438.09543,N,07404.10221,W,1,12,0.54,2593.0,M,4.7,M,,*58_
2,2,240,0,0,0.000000,-17,255_$GNGGA,205943.00,0438.09532,N,07404.10219,W,1,12,0.53,2593.1,M,4.7,M,,*5D_
2,2,240,0,0,0.000000,-17,255_$GNGGA,205926.00,0438.09524,N,07404.10207,W,1,12,0.55,2593.0,M,4.7,M,,*51_
2,2,240,0,0,0.000000,-17,255_$GNGGA,205915.00,0438.09515,N,07404.10199,W,1,12,0.56,2593.2,M,4.7,M,,*56_
2,2,240,0,0,0.000000,-62,255_$GNGGA,205847.00,0438.09518,N,07404.10209,W,1,12,0.55,2594.1,M,4.7,M,,*50_
2,2,240,0,0,0.000000,-18,255_$GNGGA,205819.00,0438.09546,N,07404.10221,W,1,12,0.53,2594.7,M,4.7,M,,*5A_
2,2,240,0,0,0.000000,-91,255_$GNGGA,205750.00,0438.09558,N,07404.10214,W,1,12,0.55,2595.1,M,4.7,M,,*50_
2,2,240,0,0,0.000000,-91,255_$GNGGA,205716.00,0438.09554,N,07404.10178,W,1,12,0.58,2595.7,M,4.7,M,,*5C_
2,2,240,0,0,0.000000,-90,255_$GNGGA,205704.00,0438.09563,N,07404.10160,W,1,12,0.56,2595.0,M,4.7,M,,*5B_
2,2,240,0,0,0.000000,-91,255_$GNGGA,205652.00,0438.09568,N,07404.10152,W,1,12,0.58,2595.3,M,4.7,M,,*5E_
2,2,240,0,0,0.000000,-88,255_$GNGGA,205640.00,0438.09575,N,07404.10157,W,1,12,0.55,2596.3,M,4.7,M,,*5A_
2,2,240,0,0,0.000000,-91,255_$GNGGA,205628.00,0438.09573,N,07404.10166,W,1,12,0.58,2597.3,M,4.7,M,,*5C_
2,2,240,0,0,0.000000,-94,255_$GNGGA,205617.00,0438.09569,N,07404.10168,W,1,12,0.56,2597.8,M,4.7,M,,*50_
2,2,240,0,0,0.000000,-91,255_$GNGGA,205606.00,0438.09567,N,07404.10165,W,1,12,0.56,2597.4,M,4.7,M,,*5F_
2,2,240,0,0,0.000000,-91,255_$GNGGA,205555.00,0438.09563,N,07404.10154,W,1,12,0.60,2596.6,M,4.7,M,,*5A_
2,2,240,0,0,0.000000,-91,255_$GNGGA,205543.00,0438.09557,N,07404.10146,W,1,12,0.58,2595.8,M,4.7,M,,*5F_
2,2,240,0,0,0.000000,-91,255_$GNGGA,205531.00,0438.09553,N,07404.10148,W,1,12,0.60,2596.1,M,4.7,M,,*51_
2,2,240,0,0,0.000000,-92,255_$GNGGA,205519.00,0438.09549,N,07404.10150,W,1,12,0.58,2596.4,M,4.7,M,,*57_
2,2,240,0,0,0.000000,-90,255_$GNGGA,205507.00,0438.09550,N,07404.10147,W,1,12,0.59,2596.1,M,4.7,M,,*52_
2,2,240,0,0,0.000000,-94,255_$GNGGA,205456.00,0438.09552,N,07404.10128,W,1,12,0.57,2595.6,M,4.7,M,,*56_
2,2,240,0,0,0.000000,-89,255_$GNGGA,205445.00,0438.09556,N,07404.10112,W,1,12,0.58,2595.3,M,4.7,M,,*53_
2,2,240,0,0,0.000000,-92,255_$GNGGA,205434.00,0438.09558,N,07404.10108,W,1,12,0.58,2595.5,M,4.7,M,,*56_
2,2,240,0,0,0.000000,-92,255_$GNGGA,205422.00,0438.09563,N,07404.10122,W,1,12,0.57,2595.7,M,4.7,M,,*5C_
2,2,240,0,0,0.000000,-92,255_$GNGGA,205411.00,0438.09570,N,07404.10142,W,1,12,0.58,2595.7,M,4.7,M,,*57_
2,2,240,0,0,0.000000,-91,255_$GNGGA,205359.00,0438.09583,N,07404.10201,W,1,12,0.58,2596.3,M,4.7,M,,*53_
2,2,240,0,0,0.000000,-92,255_$GNGGA,205347.00,0438.09590,N,07404.10244,W,1,12,0.59,2596.2,M,4.7,M,,*5F_
2,2,240,0,0,0.000000,-91,255_$GNGGA,205336.00,0438.09582,N,07404.10252,W,1,12,0.57,2596.3,M,4.7,M,,*52_
2,2,240,0,0,0.000000,-89,255_$GNGGA,205325.00,0438.09573,N,07404.10245,W,1,12,0.57,2595.9,M,4.7,M,,*51_
2,2,240,0,0,0.000000,-84,255_$GNGGA,205314.00,0438.09575,N,07404.10233,W,1,12,0.57,2595.5,M,4.7,M,,*58_
2,2,240,0,0,0.000000,-94,255_$GNGGA,205302.00,0438.09565,N,07404.10216,W,1,12,0.59,2595.4,M,4.7,M,,*56_
2,2,240,0,0,0.000000,-90,255_$GNGGA,205250.00,0438.09568,N,07404.10215,W,1,12,0.55,2596.0,M,4.7,M,,*55_
2,2,240,0,0,0.000000,-94,255_$GNGGA,205238.00,0438.09569,N,07404.10226,W,1,12,0.58,2596.9,M,4.7,M,,*5E_
2,2,240,0,0,0.000000,-92,255_$GNGGA,205226.00,0438.09578,N,07404.10234,W,1,12,0.58,2597.4,M,4.7,M,,*5E_
2,2,240,0,0,0.000000,-91,255_$GNGGA,205215.00,0438.09584,N,07404.10230,W,1,12,0.57,2597.2,M,4.7,M,,*50_
2,2,240,0,0,0.000000,-94,255_$GNGGA,205204.00,0438.09580,N,07404.10218,W,1,12,0.56,2597.2,M,4.7,M,,*5F_
2,2,240,0,0,0.000000,-94,255_$GNGGA,205153.00,0438.09576,N,07404.10208,W,1,12,0.56,2596.8,M,4.7,M,,*5D_
2,2,240,0,0,0.000000,-94,255_$GNGGA,205141.00,0438.09574,N,07404.10202,W,1,12,0.55,2596.6,M,4.7,M,,*5B_
2,2,240,0,0,0.000000,-90,255_$GNGGA,205129.00,0438.09573,N,07404.10198,W,1,12,0.56,2596.9,M,4.7,M,,*5E_
2,2,240,0,0,0.000000,-91,255_$GNGGA,205117.00,0438.09577,N,07404.10203,W,1,12,0.55,2597.6,M,4.7,M,,*5B_
2,2,240,0,0,0.000000,-90,255_$GNGGA,205105.00,0438.09581,N,07404.10198,W,1,12,0.56,2597.9,M,4.7,M,,*5C_
2,2,240,0,0,0.000000,-91,255_$GNGGA,205054.00,0438.09579,N,07404.10201,W,1,12,0.56,2598.1,M,4.7,M,,*5A_
2,2,240,0,0,0.000000,-92,255_$GNGGA,205043.00,0438.09581,N,07404.10209,W,1,12,0.56,2598.4,M,4.7,M,,*56_
2,2,240,0,0,0.000000,-92,255_$GNGGA,205032.00,0438.09582,N,07404.10213,W,1,12,0.59,2598.5,M,4.7,M,,*56_
2,2,240,0,0,0.000000,-91,255_$GNGGA,205020.00,0438.09584,N,07404.10210,W,1,12,0.56,2597.9,M,4.7,M,,*5C_
2,2,240,0,0,0.000000,-94,255_$GNGGA,205009.00,0438.09578,N,07404.10199,W,1,12,0.56,2597.5,M,4.7,M,,*5A_
2,2,240,0,0,0.000000,-94,255_$GNGGA,204957.00,0438.09573,N,07404.10183,W,1,12,0.55,2597.2,M,4.7,M,,*5D_
2,2,240,0,0,0.000000,-90,255_$GNGGA,204945.00,0438.09573,N,07404.10170,W,1,12,0.56,2597.1,M,4.7,M,,*52_
2,2,240,0,0,0.000000,-90,255_$GNGGA,204934.00,0438.09570,N,07404.10173,W,1,12,0.56,2596.6,M,4.7,M,,*52_
2,2,240,0,0,0.000000,-92,255_$GNGGA,204923.00,0438.09570,N,07404.10173,W,1,12,0.56,2595.7,M,4.7,M,,*56_
2,2,240,0,0,0.000000,-91,255_$GNGGA,204912.00,0438.09566,N,07404.10165,W,1,12,0.55,2595.2,M,4.7,M,,*52_
2,2,240,0,0,0.000000,-92,255_$GNGGA,204900.00,0438.09563,N,07404.10165,W,1,12,0.55,2595.0,M,4.7,M,,*56_
2,2,240,0,0,0.000000,-94,255_$GNGGA,204848.00,0438.09567,N,07404.10175,W,1,12,0.55,2594.7,M,4.7,M,,*58_
2,2,240,0,0,0.000000,-88,255_$GNGGA,204836.00,0438.09570,N,07404.10184,W,1,12,0.57,2594.6,M,4.7,M,,*5A_
2,2,240,0,0,0.000000,-91,255_$GNGGA,204824.00,0438.09569,N,07404.10179,W,1,12,0.56,2594.1,M,4.7,M,,*55_
2,2,240,0,0,0.000000,-91,255_$GNGGA,204813.00,0438.09565,N,07404.10176,W,1,12,0.56,2593.7,M,4.7,M,,*53_
2,2,240,0,0,0.000000,-92,255_$GNGGA,204802.00,0438.09560,N,07404.10190,W,1,12,0.56,2593.4,M,4.7,M,,*5D_
2,2,240,0,0,0.000000,-92,255_$GNGGA,204751.00,0438.09566,N,07404.10212,W,1,12,0.56,2593.0,M,4.7,M,,*5F_
2,2,240,0,0,0.000000,-96,255_$GNGGA,204739.00,0438.09572,N,07404.10232,W,1,12,0.56,2592.9,M,4.7,M,,*5E_
2,2,240,0,0,0.000000,-91,255_$GNGGA,204728.00,0438.09574,N,07404.10245,W,1,12,0.56,2593.2,M,4.7,M,,*52_
2,2,240,0,0,0.000000,-92,255_$GNGGA,204716.00,0438.09581,N,07404.10265,W,1,12,0.56,2593.5,M,4.7,M,,*50_
2,2,240,0,0,0.000000,-17,255_$GNGGA,204704.00,0438.09590,N,07404.10286,W,1,12,0.56,2594.2,M,4.7,M,,*5E_
2,2,240,0,0,0.000000,-94,255_$GNGGA,204642.00,0438.09606,N,07404.10327,W,1,12,0.57,2594.5,M,4.7,M,,*5D_
2,2,240,0,0,0.000000,-92,255_$GNGGA,204619.00,0438.09614,N,07404.10331,W,1,12,0.56,2594.1,M,4.7,M,,*52_
2,2,240,0,0,0.000000,-17,255_$GNGGA,204539.00,0438.09617,N,07404.10280,W,1,12,0.57,2595.6,M,4.7,M,,*5C_
2,2,240,0,0,0.000000,-94,255_$GNGGA,204527.00,0438.09618,N,07404.10258,W,1,12,0.57,2595.8,M,4.7,M,,*57_
2,2,240,0,0,0.000000,-20,255_$GNGGA,204510.00,0438.09609,N,07404.10228,W,1,12,0.57,2596.2,M,4.7,M,,*5D_
2,2,240,0,0,0.000000,-91,255_$GNGGA,204458.00,0438.09604,N,07404.10202,W,1,12,0.61,2596.9,M,4.7,M,,*5B_
2,2,240,0,0,0.000000,-22,255_$GNGGA,204446.00,0438.09606,N,07404.10191,W,1,12,0.57,2597.3,M,4.7,M,,*51_
2,2,240,0,0,0.000000,-92,255_$GNGGA,204434.00,0438.09604,N,07404.10186,W,1,12,0.57,2597.5,M,4.7,M,,*56_
2,2,240,0,0,0.000000,-21,255_$GNGGA,204422.00,0438.09608,N,07404.10175,W,1,12,0.57,2597.9,M,4.7,M,,*5D_
2,2,240,0,0,0.000000,-95,255_$GNGGA,204411.00,0438.09606,N,07404.10163,W,1,12,0.58,2598.2,M,4.7,M,,*5F_
2,2,240,0,0,0.000000,-17,255_$GNGGA,204354.00,0438.09585,N,07404.10143,W,1,12,0.57,2598.4,M,4.7,M,,*5A_
2,2,240,0,0,0.000000,-16,255_$GNGGA,204335.00,0438.09560,N,07404.10130,W,1,12,0.59,2599.4,M,4.7,M,,*5D_
2,2,240,0,0,0.000000,-17,255_$GNGGA,204316.00,0438.09554,N,07404.10119,W,1,12,0.59,2600.2,M,4.7,M,,*55_
2,2,240,0,0,0.000000,-92,255_$GNGGA,204305.00,0438.09559,N,07404.10123,W,1,12,0.60,2600.5,M,4.7,M,,*5E_
2,2,240,0,0,0.000000,-19,255_$GNGGA,204244.00,0438.09574,N,07404.10113,W,1,12,0.58,2600.2,M,4.7,M,,*5A_
2,2,240,0,0,0.000000,-17,255_$GNGGA,204231.00,0438.09580,N,07404.10104,W,1,12,0.58,2600.0,M,4.7,M,,*57_
2,2,240,0,0,0.000000,-91,255_$GNGGA,204202.00,0438.09594,N,07404.10113,W,1,12,0.60,2599.4,M,4.7,M,,*58_
2,2,240,0,0,0.000000,-92,255_$GNGGA,204145.00,0438.09596,N,07404.10124,W,1,12,0.61,2598.8,M,4.7,M,,*52_
2,2,240,0,0,0.000000,-91,255_$GNGGA,204126.00,0438.09601,N,07404.10129,W,1,12,0.58,2598.7,M,4.7,M,,*52_
2,2,240,0,0,0.000000,-67,255_$GNGGA,204114.00,0438.09612,N,07404.10139,W,1,12,0.58,2598.8,M,4.7,M,,*5F_
2,2,240,0,0,0.000000,-17,255_$GNGGA,204057.00,0438.09617,N,07404.10150,W,1,12,0.58,2598.5,M,4.7,M,,*5E_
2,2,240,0,0,0.000000,-16,255_$GNGGA,204038.00,0438.09613,N,07404.10162,W,1,12,0.57,2598.1,M,4.7,M,,*59_
2,2,240,0,0,0.000000,-92,255_$GNGGA,204027.00,0438.09611,N,07404.10163,W,1,12,0.57,2597.7,M,4.7,M,,*5D_
2,2,240,0,0,0.000000,-17,255_$GNGGA,204015.00,0438.09605,N,07404.10157,W,1,12,0.57,2597.2,M,4.7,M,,*5B_
2,2,240,0,0,0.000000,-17,255_$GNGGA,203958.00,0438.09595,N,07404.10138,W,1,12,0.59,2596.5,M,4.7,M,,*57_
2,2,240,0,0,0.000000,-91,255_$GNGGA,203947.00,0438.09592,N,07404.10130,W,1,12,0.57,2596.1,M,4.7,M,,*5C_
2,2,240,0,0,0.000000,-16,255_$GNGGA,203935.00,0438.09586,N,07404.10125,W,1,12,0.58,2595.6,M,4.7,M,,*53_
2,2,240,0,0,0.000000,-25,255_$GNGGA,203918.00,0438.09582,N,07404.10133,W,1,12,0.58,2595.8,M,4.7,M,,*51_
2,2,240,0,0,0.000000,-92,255_$GNGGA,203907.00,0438.09577,N,07404.10127,W,1,12,0.58,2595.9,M,4.7,M,,*51_
2,2,240,0,0,0.000000,-91,255_$GNGGA,203855.00,0438.09577,N,07404.10137,W,1,12,0.57,2595.7,M,4.7,M,,*57_
2,2,240,0,0,0.000000,-92,255_$GNGGA,203843.00,0438.09577,N,07404.10144,W,1,12,0.57,2595.4,M,4.7,M,,*57_
2,2,240,0,0,0.000000,-91,255_$GNGGA,203831.00,0438.09582,N,07404.10149,W,1,12,0.57,2595.2,M,4.7,M,,*53_
2,2,240,0,0,0.000000,-92,255_$GNGGA,203820.00,0438.09591,N,07404.10158,W,1,12,0.58,2594.9,M,4.7,M,,*54_
2,2,240,0,0,0.000000,-18,255_$GNGGA,203809.00,0438.09597,N,07404.10171,W,1,12,0.57,2594.8,M,4.7,M,,*5C_
2,2,240,0,0,0.000000,-91,255_$GNGGA,203758.00,0438.09598,N,07404.10179,W,1,12,0.57,2594.4,M,4.7,M,,*5C_
2,2,240,0,0,0.000000,-17,255_$GNGGA,203747.00,0438.09599,N,07404.10185,W,1,12,0.57,2593.6,M,4.7,M,,*55_
2,2,240,0,0,0.000000,-18,255_$GNGGA,203730.00,0438.09596,N,07404.10206,W,1,12,0.57,2592.0,M,4.7,M,,*55_
2,2,240,0,0,0.000000,-96,255_$GNGGA,203719.00,0438.09593,N,07404.10214,W,1,12,0.57,2591.1,M,4.7,M,,*5A_
2,2,240,0,0,0.000000,-92,255_$GNGGA,203707.00,0438.09592,N,07404.10212,W,1,12,0.56,2590.8,M,4.7,M,,*5B_
2,2,240,0,0,0.000000,-90,255_$GNGGA,203656.00,0438.09587,N,07404.10211,W,1,12,0.56,2590.9,M,4.7,M,,*58_
2,2,240,0,0,0.000000,-91,255_$GNGGA,203644.00,0438.09583,N,07404.10219,W,1,12,0.56,2591.3,M,4.7,M,,*5C_
2,2,240,0,0,0.000000,-91,255_$GNGGA,203632.00,0438.09578,N,07404.10236,W,1,12,0.57,2592.0,M,4.7,M,,*55_
2,2,240,0,0,0.000000,-90,255_$GNGGA,203621.00,0438.09572,N,07404.10247,W,1,12,0.56,2593.1,M,4.7,M,,*5A_
2,2,240,0,0,0.000000,-92,255_$GNGGA,203610.00,0438.09563,N,07404.10254,W,1,12,0.56,2594.5,M,4.7,M,,*59_
2,2,240,0,0,0.000000,-92,255_$GNGGA,203559.00,0438.09559,N,07404.10243,W,1,12,0.56,2595.6,M,4.7,M,,*5A_
2,2,240,0,0,0.000000,-91,255_$GNGGA,203547.00,0438.09569,N,07404.10248,W,1,12,0.57,2595.5,M,4.7,M,,*5F_
2,2,240,0,0,0.000000,-92,255_$GNGGA,203536.00,0438.09580,N,07404.10247,W,1,12,0.56,2595.3,M,4.7,M,,*56_
2,2,240,0,0,0.000000,-92,255_$GNGGA,203524.00,0438.09589,N,07404.10229,W,1,12,0.56,2594.4,M,4.7,M,,*52_
2,2,240,0,0,0.000000,-92,255_$GNGGA,203513.00,0438.09593,N,07404.10206,W,1,12,0.56,2593.4,M,4.7,M,,*57_
2,2,240,0,0,0.000000,-21,255_$GNGGA,203502.00,0438.09595,N,07404.10189,W,1,12,0.60,2592.6,M,4.7,M,,*53_
2,2,240,0,0,0.000000,-91,255_$GNGGA,203451.00,0438.09594,N,07404.10184,W,1,12,0.61,2592.9,M,4.7,M,,*56_
2,2,240,0,0,0.000000,-20,255_$GNGGA,203439.00,0438.09594,N,07404.10212,W,1,12,0.61,2594.6,M,4.7,M,,*5D_
2,2,240,0,0,0.000000,-22,255_$GNGGA,203422.00,0438.09594,N,07404.10257,W,1,12,0.61,2596.4,M,4.7,M,,*56_
2,2,240,0,0,0.000000,-92,255_$GNGGA,203411.00,0438.09590,N,07404.10261,W,1,12,0.64,2596.9,M,4.7,M,,*5F_
2,2,240,0,0,0.000000,-17,255_$GNGGA,203359.00,0438.09588,N,07404.10263,W,1,12,0.60,2597.0,M,4.7,M,,*53_
2,2,240,0,0,0.000000,-17,255_$GNGGA,203342.00,0438.09583,N,07404.10263,W,1,12,0.61,2596.6,M,4.7,M,,*54_
2,2,240,0,0,0.000000,-92,255_$GNGGA,203331.00,0438.09584,N,07404.10273,W,1,12,0.60,2596.0,M,4.7,M,,*51_
2,2,240,0,0,0.000000,-91,255_$GNGGA,203319.00,0438.09585,N,07404.10295,W,1,12,0.59,2595.9,M,4.7,M,,*52_
2,2,240,0,0,0.000000,-91,255_$GNGGA,203307.00,0438.09596,N,07404.10324,W,1,12,0.59,2595.9,M,4.7,M,,*54_
2,2,240,0,0,0.000000,-91,255_$GNGGA,203255.00,0438.09612,N,07404.10363,W,1,12,0.59,2595.5,M,4.7,M,,*52_
2,2,240,0,0,0.000000,-92,255_$GNGGA,203244.00,0438.09630,N,07404.10391,W,1,12,0.59,2595.5,M,4.7,M,,*5F_
2,2,240,0,0,0.000000,-17,255_$GNGGA,203233.00,0438.09640,N,07404.10408,W,1,12,0.59,2595.8,M,4.7,M,,*52_
2,2,240,0,0,0.000000,-92,255_$GNGGA,203222.00,0438.09652,N,07404.10425,W,1,12,0.59,2595.8,M,4.7,M,,*5E_
2,2,240,0,0,0.000000,-16,255_$GNGGA,203211.00,0438.09659,N,07404.10443,W,1,12,0.59,2595.2,M,4.7,M,,*5F_
2,2,240,0,0,0.000000,-17,255_$GNGGA,203154.00,0438.09675,N,07404.10459,W,1,12,0.59,2594.4,M,4.7,M,,*5F_
2,2,240,0,0,0.000000,-94,255_$GNGGA,203143.00,0438.09682,N,07404.10474,W,1,12,0.59,2593.9,M,4.7,M,,*54_
2,2,240,0,0,0.000000,-17,255_$GNGGA,203131.00,0438.09686,N,07404.10488,W,1,12,0.59,2593.8,M,4.7,M,,*57_
2,2,240,0,0,0.000000,-20,255_$GNGGA,203114.00,0438.09676,N,07404.10483,W,1,12,0.61,2594.4,M,4.7,M,,*54_
2,2,240,0,0,0.000000,-94,255_$GNGGA,203103.00,0438.09667,N,07404.10470,W,1,12,0.61,2594.7,M,4.7,M,,*5D_
2,2,240,0,0,0.000000,-92,255_$GNGGA,203051.00,0438.09657,N,07404.10449,W,1,12,0.59,2594.9,M,4.7,M,,*57_
2,2,240,0,0,0.000000,-89,255_$GNGGA,203040.00,0438.09654,N,07404.10428,W,1,12,0.59,2595.3,M,4.7,M,,*58_
2,2,240,0,0,0.000000,-94,255_$GNGGA,203028.00,0438.09652,N,07404.10416,W,1,12,0.59,2595.8,M,4.7,M,,*56_
2,2,240,0,0,0.000000,-92,255_$GNGGA,203016.00,0438.09660,N,07404.10409,W,1,12,0.60,2596.1,M,4.7,M,,*54_
2,2,240,0,0,0.000000,-18,255_$GNGGA,203005.00,0438.09660,N,07404.10388,W,1,12,0.59,2596.3,M,4.7,M,,*50_
2,2,240,0,0,0.000000,-94,255_$GNGGA,202954.00,0438.09648,N,07404.10353,W,1,12,0.59,2596.1,M,4.7,M,,*52_
2,2,240,0,0,0.000000,-20,255_$GNGGA,202943.00,0438.09634,N,07404.10317,W,1,12,0.58,2595.9,M,4.7,M,,*55_
2,2,240,0,0,0.000000,-16,255_$GNGGA,202926.00,0438.09626,N,07404.10299,W,1,12,0.58,2595.6,M,4.7,M,,*5D_
2,2,240,0,0,0.000000,-82,255_$GNGGA,202915.00,0438.09624,N,07404.10303,W,1,12,0.58,2595.3,M,4.7,M,,*58_
2,2,240,0,0,0.000000,-34,255_$GNGGA,202903.00,0438.09626,N,07404.10302,W,1,12,0.60,2595.3,M,4.7,M,,*57_
2,2,240,0,0,0.000000,-19,255_$GNGGA,202846.00,0438.09629,N,07404.10293,W,1,12,0.58,2596.0,M,4.7,M,,*5A_
2,2,240,0,0,0.000000,-90,255_$GNGGA,202835.00,0438.09626,N,07404.10268,W,1,12,0.58,2596.8,M,4.7,M,,*5D_
2,2,240,0,0,0.000000,-21,255_$GNGGA,202823.00,0438.09633,N,07404.10243,W,1,12,0.58,2596.8,M,4.7,M,,*57_
2,2,240,0,0,0.000000,-19,255_$GNGGA,202806.00,0438.09643,N,07404.10227,W,1,12,0.58,2596.2,M,4.7,M,,*5F_
2,2,240,0,0,0.000000,-92,255_$GNGGA,202755.00,0438.09638,N,07404.10211,W,1,12,0.58,2596.0,M,4.7,M,,*5D_
2,2,240,0,0,0.000000,-92,255_$GNGGA,202743.00,0438.09628,N,07404.10196,W,1,12,0.57,2595.4,M,4.7,M,,*5F_
2,2,240,0,0,0.000000,-94,255_$GNGGA,202731.00,0438.09627,N,07404.10199,W,1,12,0.59,2595.6,M,4.7,M,,*56_
2,2,240,0,0,0.000000,-94,255_$GNGGA,202719.00,0438.09624,N,07404.10205,W,1,12,0.59,2596.5,M,4.7,M,,*59_
2,2,240,0,0,0.000000,-90,255_$GNGGA,202708.00,0438.09620,N,07404.10203,W,1,12,0.57,2597.5,M,4.7,M,,*54_
2,2,240,0,0,0.000000,-19,255_$GNGGA,202657.00,0438.09616,N,07404.10195,W,1,12,0.57,2597.8,M,4.7,M,,*5B_
2,2,240,0,0,0.000000,-92,255_$GNGGA,202646.00,0438.09611,N,07404.10182,W,1,12,0.57,2597.4,M,4.7,M,,*56_
2,2,240,0,0,0.000000,-22,255_$GNGGA,202635.00,0438.09608,N,07404.10172,W,1,12,0.59,2596.8,M,4.7,M,,*56_
2,2,240,0,0,0.000000,-16,255_$GNGGA,202618.00,0438.09608,N,07404.10175,W,1,12,0.58,2596.4,M,4.7,M,,*53_
2,2,240,0,0,0.000000,-92,255_$GNGGA,202607.00,0438.09608,N,07404.10181,W,1,12,0.58,2596.0,M,4.7,M,,*52_
2,2,240,0,0,0.000000,-22,255_$GNGGA,202555.00,0438.09605,N,07404.10165,W,1,12,0.58,2595.6,M,4.7,M,,*54_
2,2,240,0,0,0.000000,-17,255_$GNGGA,202538.00,0438.09609,N,07404.10161,W,1,12,0.58,2595.2,M,4.7,M,,*53_
2,2,240,0,0,0.000000,-90,255_$GNGGA,202527.00,0438.09617,N,07404.10177,W,1,12,0.57,2595.5,M,4.7,M,,*5D_
2,2,240,0,0,0.000000,-92,255_$GNGGA,202515.00,0438.09629,N,07404.10204,W,1,12,0.57,2595.5,M,4.7,M,,*56_
2,2,240,0,0,0.000000,-90,255_$GNGGA,202504.00,0438.09637,N,07404.10222,W,1,12,0.57,2595.6,M,4.7,M,,*5E_
2,2,240,0,0,0.000000,-91,255_$GNGGA,202452.00,0438.09638,N,07404.10224,W,1,12,0.57,2596.1,M,4.7,M,,*51_
2,2,240,0,0,0.000000,-90,255_$GNGGA,202440.00,0438.09638,N,07404.10217,W,1,12,0.57,2596.9,M,4.7,M,,*5A_
2,2,240,0,0,0.000000,-16,255_$GNGGA,202429.00,0438.09639,N,07404.10227,W,1,12,0.57,2597.2,M,4.7,M,,*5D_
2,2,240,0,0,0.000000,-92,255_$GNGGA,202418.00,0438.09642,N,07404.10247,W,1,12,0.57,2597.2,M,4.7,M,,*55_
2,2,240,0,0,0.000000,-17,255_$GNGGA,202407.00,0438.09649,N,07404.10275,W,1,12,0.57,2597.4,M,4.7,M,,*57_
2,2,240,0,0,0.000000,-17,255_$GNGGA,202350.00,0438.09655,N,07404.10310,W,1,12,0.58,2597.2,M,4.7,M,,*54_
2,2,240,0,0,0.000000,-88,255_$GNGGA,202339.00,0438.09653,N,07404.10314,W,1,12,0.57,2596.8,M,4.7,M,,*5D_
2,2,240,0,0,0.000000,-17,255_$GNGGA,202327.00,0438.09640,N,07404.10300,W,1,12,0.57,2596.6,M,4.7,M,,*5B_
2,2,240,0,0,0.000000,-17,255_$GNGGA,202310.00,0438.09614,N,07404.10285,W,1,12,0.57,2596.6,M,4.7,M,,*52_
2,2,240,0,0,0.000000,-94,255_$GNGGA,202259.00,0438.09593,N,07404.10274,W,1,12,0.57,2596.4,M,4.7,M,,*5E_
2,2,240,0,0,0.000000,-94,255_$GNGGA,202247.00,0438.09578,N,07404.10258,W,1,12,0.57,2596.0,M,4.7,M,,*5E_
2,2,240,0,0,0.000000,-89,255_$GNGGA,202236.00,0438.09564,N,07404.10253,W,1,12,0.57,2595.7,M,4.7,M,,*5A_
2,2,240,0,0,0.000000,-92,255_$GNGGA,202224.00,0438.09548,N,07404.10236,W,1,12,0.57,2595.8,M,4.7,M,,*5B_
2,2,240,0,0,0.000000,-92,255_$GNGGA,202212.00,0438.09543,N,07404.10228,W,1,12,0.57,2596.1,M,4.7,M,,*50_
2,2,240,0,0,0.000000,-90,255_$GNGGA,202201.00,0438.09545,N,07404.10230,W,1,12,0.57,2595.9,M,4.7,M,,*56_
2,2,240,0,0,0.000000,-92,255_$GNGGA,202150.00,0438.09545,N,07404.10234,W,1,12,0.58,2595.8,M,4.7,M,,*5B_
2,2,240,0,0,0.000000,-92,255_$GNGGA,202139.00,0438.09539,N,07404.10228,W,1,12,0.57,2595.3,M,4.7,M,,*56_
2,2,240,0,0,0.000000,-92,255_$GNGGA,202127.00,0438.09538,N,07404.10250,W,1,12,0.57,2595.2,M,4.7,M,,*56_
2,2,240,0,0,0.000000,-85,255_$GNGGA,202115.00,0438.09540,N,07404.10257,W,1,12,0.57,2595.5,M,4.7,M,,*58_
2,2,240,0,0,0.000000,-94,255_$GNGGA,202103.00,0438.09535,N,07404.10244,W,1,12,0.57,2594.9,M,4.7,M,,*52_
2,2,240,0,0,0.000000,-90,255_$GNGGA,202052.00,0438.09536,N,07404.10238,W,1,12,0.57,2594.0,M,4.7,M,,*56_
2,2,240,0,0,0.000000,-17,255_$GNGGA,202041.00,0438.09536,N,07404.10241,W,1,12,0.57,2594.1,M,4.7,M,,*5B_
2,2,240,0,0,0.000000,-17,255_$GNGGA,202024.00,0438.09541,N,07404.10260,W,1,12,0.56,2594.3,M,4.7,M,,*58_
2,2,240,0,0,0.000000,-91,255_$GNGGA,202013.00,0438.09552,N,07404.10288,W,1,12,0.56,2594.0,M,4.7,M,,*5B_
2,2,240,0,0,0.000000,-92,255_$GNGGA,202002.00,0438.09558,N,07404.10299,W,1,12,0.56,2593.7,M,4.7,M,,*51_
2,2,240,0,0,0.000000,-90,255_$GNGGA,201951.00,0438.09557,N,07404.10301,W,1,12,0.56,2593.4,M,4.7,M,,*51_
2,2,240,0,0,0.000000,-21,255_$GNGGA,201939.00,0438.09557,N,07404.10311,W,1,12,0.56,2593.0,M,4.7,M,,*5A_
2,2,240,0,0,0.000000,-17,255_$GNGGA,201922.00,0438.09568,N,07404.10355,W,1,12,0.57,2591.9,M,4.7,M,,*56_
2,2,240,0,0,0.000000,-92,255_$GNGGA,201911.00,0438.09579,N,07404.10393,W,1,12,0.57,2590.5,M,4.7,M,,*51_
2,2,240,0,0,0.000000,-92,255_$GNGGA,201859.00,0438.09583,N,07404.10432,W,1,12,0.56,2589.5,M,4.7,M,,*5C_
2,2,240,0,0,0.000000,-94,255_$GNGGA,201847.00,0438.09580,N,07404.10442,W,1,12,0.57,2588.9,M,4.7,M,,*5B_
2,2,240,0,0,0.000000,-91,255_$GNGGA,201835.00,0438.09575,N,07404.10428,W,1,12,0.56,2588.5,M,4.7,M,,*55_
2,2,240,0,0,0.000000,-89,255_$GNGGA,201824.00,0438.09566,N,07404.10405,W,1,12,0.56,2588.3,M,4.7,M,,*5E_
2,2,240,0,0,0.000000,-21,255_$GNGGA,201813.00,0438.09558,N,07404.10385,W,1,12,0.56,2588.4,M,4.7,M,,*5F_
2,2,240,0,0,0.000000,-90,255_$GNGGA,201802.00,0438.09548,N,07404.10359,W,1,12,0.56,2589.0,M,4.7,M,,*5A_
2,2,240,0,0,0.000000,-17,255_$GNGGA,201751.00,0438.09539,N,07404.10335,W,1,12,0.57,2589.7,M,4.7,M,,*59_
2,2,240,0,0,0.000000,-89,255_$GNGGA,201739.00,0438.09533,N,07404.10313,W,1,12,0.56,2590.0,M,4.7,M,,*57_
2,2,240,0,0,0.000000,-92,255_$GNGGA,201728.00,0438.09529,N,07404.10305,W,1,12,0.56,2590.1,M,4.7,M,,*5A_
2,2,240,0,0,0.000000,-91,255_$GNGGA,201716.00,0438.09524,N,07404.10316,W,1,12,0.56,2590.9,M,4.7,M,,*50_
2,2,240,0,0,0.000000,-92,255_$GNGGA,201705.00,0438.09520,N,07404.10321,W,1,12,0.56,2591.9,M,4.7,M,,*53_
2,2,240,0,0,0.000000,-96,255_$GNGGA,201654.00,0438.09521,N,07404.10319,W,1,12,0.56,2592.3,M,4.7,M,,*55_
2,2,240,0,0,0.000000,-91,255_$GNGGA,201643.00,0438.09527,N,07404.10304,W,1,12,0.56,2592.6,M,4.7,M,,*5C_
2,2,240,0,0,0.000000,-90,255_$GNGGA,201631.00,0438.09531,N,07404.10271,W,1,12,0.56,2592.6,M,4.7,M,,*5D_
2,2,240,0,0,0.000000,-91,255_$GNGGA,201619.00,0438.09545,N,07404.10266,W,1,12,0.57,2592.4,M,4.7,M,,*51_
2,2,240,0,0,0.000000,-92,255_$GNGGA,201607.00,0438.09560,N,07404.10270,W,1,12,0.57,2591.8,M,4.7,M,,*51_
2,2,240,0,0,0.000000,-92,255_$GNGGA,201555.00,0438.09572,N,07404.10272,W,1,12,0.56,2591.4,M,4.7,M,,*59_
2,2,240,0,0,0.000000,-91,255_$GNGGA,201544.00,0438.09577,N,07404.10265,W,1,12,0.56,2591.1,M,4.7,M,,*5F_
2,2,240,0,0,0.000000,-91,255_$GNGGA,201533.00,0438.09581,N,07404.10266,W,1,12,0.57,2591.2,M,4.7,M,,*57_
2,2,240,0,0,0.000000,-94,255_$GNGGA,201522.00,0438.09582,N,07404.10266,W,1,12,0.57,2591.3,M,4.7,M,,*55_
2,2,240,0,0,0.000000,-90,255_$GNGGA,201510.00,0438.09580,N,07404.10280,W,1,12,0.56,2591.4,M,4.7,M,,*58_
2,2,240,0,0,0.000000,-84,255_$GNGGA,201459.00,0438.09580,N,07404.10295,W,1,12,0.57,2591.5,M,4.7,M,,*50_
2,2,240,0,0,0.000000,-83,255_$GNGGA,201447.00,0438.09576,N,07404.10308,W,1,12,0.57,2591.8,M,4.7,M,,*5E_
2,2,240,0,0,0.000000,-84,255_$GNGGA,201435.00,0438.09569,N,07404.10316,W,1,12,0.57,2591.9,M,4.7,M,,*5B_
2,2,240,0,0,0.000000,-83,255_$GNGGA,201424.00,0438.09573,N,07404.10332,W,1,12,0.57,2591.9,M,4.7,M,,*56_
2,2,240,0,0,0.000000,-94,255_$GNGGA,201413.00,0438.09583,N,07404.10341,W,1,12,0.57,2592.0,M,4.7,M,,*53_
2,2,240,0,0,0.000000,-91,255_$GNGGA,201402.00,0438.09595,N,07404.10334,W,1,12,0.57,2592.0,M,4.7,M,,*56_
2,2,240,0,0,0.000000,-83,255_$GNGGA,201350.00,0438.09607,N,07404.10312,W,1,12,0.56,2591.9,M,4.7,M,,*51_
2,2,240,0,0,0.000000,-89,255_$GNGGA,201338.00,0438.09615,N,07404.10297,W,1,12,0.56,2591.9,M,4.7,M,,*50_
2,2,240,0,0,0.000000,-96,255_$GNGGA,201326.00,0438.09619,N,07404.10285,W,1,12,0.56,2591.8,M,4.7,M,,*51_
2,2,240,0,0,0.000000,-82,255_$GNGGA,201314.00,0438.09619,N,07404.10270,W,1,12,0.56,2591.6,M,4.7,M,,*54_
2,2,240,0,0,0.000000,-91,255_$GNGGA,201303.00,0438.09617,N,07404.10262,W,1,12,0.56,2591.6,M,4.7,M,,*5F_
2,2,240,0,0,0.000000,-92,255_$GNGGA,201252.00,0438.09618,N,07404.10254,W,1,12,0.56,2591.7,M,4.7,M,,*51_
2,2,240,0,0,0.000000,-90,255_$GNGGA,201241.00,0438.09618,N,07404.10252,W,1,12,0.56,2591.8,M,4.7,M,,*5A_
2,2,240,0,0,0.000000,-92,255_$GNGGA,201229.00,0438.09616,N,07404.10255,W,1,12,0.56,2592.1,M,4.7,M,,*57_
2,2,240,0,0,0.000000,-93,255_$GNGGA,201218.00,0438.09619,N,07404.10264,W,1,12,0.56,2592.5,M,4.7,M,,*5C_
2,2,240,0,0,0.000000,-92,255_$GNGGA,201206.00,0438.09622,N,07404.10283,W,1,12,0.57,2593.1,M,4.7,M,,*56_
2,2,240,0,0,0.000000,-90,255_$GNGGA,201154.00,0438.09618,N,07404.10287,W,1,12,0.57,2593.6,M,4.7,M,,*58_
2,2,240,0,0,0.000000,-22,255_$GNGGA,201143.00,0438.09605,N,07404.10285,W,1,12,0.57,2594.0,M,4.7,M,,*51_
2,2,240,0,0,0.000000,-94,255_$GNGGA,201132.00,0438.09591,N,07404.10281,W,1,12,0.56,2594.1,M,4.7,M,,*5D_
2,2,240,0,0,0.000000,-18,255_$GNGGA,201121.00,0438.09573,N,07404.10277,W,1,12,0.56,2594.3,M,4.7,M,,*58_
2,2,240,0,0,0.000000,-17,255_$GNGGA,201104.00,0438.09564,N,07404.10308,W,1,12,0.57,2594.4,M,4.7,M,,*56_
2,2,240,0,0,0.000000,-90,255_$GNGGA,201053.00,0438.09571,N,07404.10341,W,1,12,0.57,2594.1,M,4.7,M,,*59_
2,2,240,0,0,0.000000,-17,255_$GNGGA,201041.00,0438.09575,N,07404.10363,W,1,12,0.57,2593.5,M,4.7,M,,*5D_
2,2,240,0,0,0.000000,-17,255_$GNGGA,201024.00,0438.09585,N,07404.10408,W,1,12,0.57,2593.2,M,4.7,M,,*5C_
2,2,240,0,0,0.000000,-92,255_$GNGGA,201013.00,0438.09589,N,07404.10436,W,1,12,0.56,2593.7,M,4.7,M,,*5D_
2,2,240,0,0,0.000000,-20,255_$GNGGA,201001.00,0438.09591,N,07404.10456,W,1,12,0.56,2594.2,M,4.7,M,,*53_
2,2,240,0,0,0.000000,-18,255_$GNGGA,200944.00,0438.09591,N,07404.10491,W,1,12,0.57,2595.2,M,4.7,M,,*51_
2,2,240,0,0,0.000000,-90,255_$GNGGA,200933.00,0438.09592,N,07404.10520,W,1,12,0.59,2595.6,M,4.7,M,,*53_
2,2,240,0,0,0.000000,-92,255_$GNGGA,200921.00,0438.09594,N,07404.10534,W,1,12,0.56,2595.6,M,4.7,M,,*5C_
2,2,240,0,0,0.000000,-91,255_$GNGGA,200909.00,0438.09602,N,07404.10548,W,1,12,0.56,2595.3,M,4.7,M,,*54_
2,2,240,0,0,0.000000,-91,255_$GNGGA,200857.00,0438.09608,N,07404.10563,W,1,12,0.56,2595.2,M,4.7,M,,*5C_
2,2,240,0,0,0.000000,-92,255_$GNGGA,200846.00,0438.09617,N,07404.10568,W,1,12,0.57,2595.2,M,4.7,M,,*58_
2,2,240,0,0,0.000000,-19,255_$GNGGA,200835.00,0438.09628,N,07404.10565,W,1,12,0.56,2595.4,M,4.7,M,,*5A_
2,2,240,0,0,0.000000,-94,255_$GNGGA,200824.00,0438.09633,N,07404.10560,W,1,12,0.56,2596.0,M,4.7,M,,*52_
2,2,240,0,0,0.000000,-17,255_$GNGGA,200813.00,0438.09634,N,07404.10548,W,1,12,0.57,2596.2,M,4.7,M,,*58_
2,2,240,0,0,0.000000,-24,255_$GNGGA,200756.00,0438.09633,N,07404.10525,W,1,12,0.56,2595.7,M,4.7,M,,*5D_
2,2,240,0,0,0.000000,-89,255_$GNGGA,200745.00,0438.09623,N,07404.10492,W,1,12,0.56,2595.1,M,4.7,M,,*55_
2,2,240,0,0,0.000000,-90,255_$GNGGA,200733.00,0438.09603,N,07404.10434,W,1,12,0.56,2594.3,M,4.7,M,,*59_
2,2,240,0,0,0.000000,-96,255_$GNGGA,200722.00,0438.09575,N,07404.10352,W,1,12,0.56,2593.6,M,4.7,M,,*5E_
2,2,240,0,0,0.000000,-91,255_$GNGGA,200710.00,0438.09552,N,07404.10295,W,1,12,0.57,2593.2,M,4.7,M,,*55_
2,2,240,0,0,0.000000,-92,255_$GNGGA,200659.00,0438.09538,N,07404.10263,W,1,12,0.58,2592.9,M,4.7,M,,*59_
2,2,240,0,0,0.000000,-91,255_$GNGGA,200648.00,0438.09523,N,07404.10221,W,1,12,0.56,2592.8,M,4.7,M,,*5A_
2,2,240,0,0,0.000000,-25,255_$GNGGA,200637.00,0438.09513,N,07404.10191,W,1,12,0.60,2592.7,M,4.7,M,,*53_
2,2,240,0,0,0.000000,-18,255_$GNGGA,200620.00,0438.09504,N,07404.10189,W,1,12,0.59,2593.1,M,4.7,M,,*57_
2,2,240,0,0,0.000000,-90,255_$GNGGA,200609.00,0438.09505,N,07404.10208,W,1,12,0.59,2593.5,M,4.7,M,,*53_
2,2,240,0,0,0.000000,-92,255_$GNGGA,200558.00,0438.09506,N,07404.10231,W,1,12,0.56,2593.8,M,4.7,M,,*5F_
2,2,240,0,0,0.000000,-91,255_$GNGGA,200546.00,0438.09502,N,07404.10241,W,1,12,0.56,2593.8,M,4.7,M,,*53_
2,2,240,0,0,0.000000,-91,255_$GNGGA,200534.00,0438.09495,N,07404.10239,W,1,12,0.56,2593.7,M,4.7,M,,*59_
2,2,240,0,0,0.000000,-91,255_$GNGGA,200522.00,0438.09497,N,07404.10243,W,1,12,0.56,2593.8,M,4.7,M,,*5E_
2,2,240,0,0,0.000000,-89,255_$GNGGA,200510.00,0438.09495,N,07404.10257,W,1,12,0.56,2594.0,M,4.7,M,,*57_
2,2,240,0,0,0.000000,-92,255_$GNGGA,200459.00,0438.09490,N,07404.10266,W,1,12,0.58,2594.3,M,4.7,M,,*51_
2,2,240,0,0,0.000000,-92,255_$GNGGA,200448.00,0438.09499,N,07404.10259,W,1,12,0.57,2594.0,M,4.7,M,,*58_
2,2,240,0,0,0.000000,-91,255_$GNGGA,200437.00,0438.09508,N,07404.10280,W,1,12,0.55,2594.1,M,4.7,M,,*5E_
2,2,240,0,0,0.000000,-94,255_$GNGGA,200425.00,0438.09516,N,07404.10316,W,1,12,0.55,2594.3,M,4.7,M,,*5E_
2,2,240,0,0,0.000000,-91,255_$GNGGA,200414.00,0438.09522,N,07404.10346,W,1,12,0.57,2594.4,M,4.7,M,,*5B_
2,2,240,0,0,0.000000,-94,255_$GNGGA,200402.00,0438.09521,N,07404.10359,W,1,12,0.56,2594.2,M,4.7,M,,*56_
2,2,240,0,0,0.000000,-92,255_$GNGGA,200350.00,0438.09509,N,07404.10341,W,1,12,0.55,2594.2,M,4.7,M,,*56_
2,2,240,0,0,0.000000,-91,255_$GNGGA,200339.00,0438.09504,N,07404.10338,W,1,12,0.57,2594.4,M,4.7,M,,*5E_
2,2,240,0,0,0.000000,-91,255_$GNGGA,200328.00,0438.09504,N,07404.10348,W,1,12,0.57,2594.8,M,4.7,M,,*55_
2,2,240,0,0,0.000000,-19,255_$GNGGA,200317.00,0438.09502,N,07404.10364,W,1,12,0.55,2595.5,M,4.7,M,,*5F_
2,2,240,0,0,0.000000,-92,255_$GNGGA,200305.00,0438.09498,N,07404.10379,W,1,12,0.55,2596.3,M,4.7,M,,*57_
2,2,240,0,0,0.000000,-17,255_$GNGGA,200254.00,0438.09498,N,07404.10374,W,1,12,0.58,2596.7,M,4.7,M,,*56_
2,2,240,0,0,0.000000,-90,255_$GNGGA,200242.00,0438.09496,N,07404.10349,W,1,12,0.58,2596.8,M,4.7,M,,*5E_
2,2,240,0,0,0.000000,-92,255_$GNGGA,200231.00,0438.09497,N,07404.10315,W,1,12,0.58,2596.6,M,4.7,M,,*5C_
2,2,240,0,0,0.000000,-89,255_$GNGGA,200220.00,0438.09493,N,07404.10279,W,1,12,0.58,2596.3,M,4.7,M,,*56_
2,2,240,0,0,0.000000,-91,255_$GNGGA,200209.00,0438.09488,N,07404.10269,W,1,12,0.58,2596.3,M,4.7,M,,*56_
2,2,240,0,0,0.000000,-17,255_$GNGGA,200157.00,0438.09488,N,07404.10280,W,1,12,0.58,2596.5,M,4.7,M,,*5F_
2,2,240,0,0,0.000000,-24,255_$GNGGA,200140.00,0438.09485,N,07404.10258,W,1,12,0.58,2596.7,M,4.7,M,,*53_
2,2,240,0,0,0.000000,-91,255_$GNGGA,200129.00,0438.09484,N,07404.10242,W,1,12,0.55,2597.1,M,4.7,M,,*5C_
2,2,240,0,0,0.000000,-26,255_$GNGGA,200117.00,0438.09492,N,07404.10218,W,1,12,0.58,2597.0,M,4.7,M,,*55_
2,2,240,0,0,0.000000,-28,255_$GNGGA,200100.00,0438.09510,N,07404.10217,W,1,12,0.55,2597.0,M,4.7,M,,*5A_
2,2,240,0,0,0.000000,-91,255_$GNGGA,200049.00,0438.09526,N,07404.10238,W,1,12,0.57,2597.4,M,4.7,M,,*58_
2,2,240,0,0,0.000000,-92,255_$GNGGA,200037.00,0438.09543,N,07404.10276,W,1,12,0.60,2597.8,M,4.7,M,,*50_
2,2,240,0,0,0.000000,-92,255_$GNGGA,200025.00,0438.09556,N,07404.10294,W,1,12,0.57,2598.2,M,4.7,M,,*5A_
2,2,240,0,0,0.000000,-94,255_$GNGGA,200013.00,0438.09562,N,07404.10317,W,1,12,0.57,2597.8,M,4.7,M,,*57_
2,2,240,0,0,0.000000,-94,255_$GNGGA,200002.00,0438.09564,N,07404.10341,W,1,12,0.60,2597.3,M,4.7,M,,*5D_
2,2,240,0,0,0.000000,-89,255_$GNGGA,195951.00,0438.09575,N,07404.10347,W,1,12,0.60,2596.4,M,4.7,M,,*5D_
2,2,240,0,0,0.000000,-17,255_$GNGGA,195940.00,0438.09582,N,07404.10340,W,1,12,0.60,2595.9,M,4.7,M,,*5C_
2,2,240,0,0,0.000000,-25,255_$GNGGA,195923.00,0438.09577,N,07404.10338,W,1,12,0.60,2595.4,M,4.7,M,,*51_
2,2,240,0,0,0.000000,-90,255_$GNGGA,195912.00,0438.09574,N,07404.10343,W,1,12,0.60,2595.3,M,4.7,M,,*5B_
2,2,240,0,0,0.000000,-92,255_$GNGGA,195901.00,0438.09561,N,07404.10343,W,1,12,0.60,2595.7,M,4.7,M,,*59_
2,2,240,0,0,0.000000,-21,255_$GNGGA,195849.00,0438.09552,N,07404.10355,W,1,12,0.60,2596.5,M,4.7,M,,*52_
2,2,240,0,0,0.000000,-17,255_$GNGGA,195832.00,0438.09562,N,07404.10381,W,1,12,0.60,2597.3,M,4.7,M,,*53_
2,2,240,0,0,0.000000,-94,255_$GNGGA,195821.00,0438.09566,N,07404.10387,W,1,12,0.57,2597.6,M,4.7,M,,*52_
2,2,240,0,0,0.000000,-92,255_$GNGGA,195809.00,0438.09565,N,07404.10375,W,1,12,0.62,2597.7,M,4.7,M,,*51_
2,2,240,0,0,0.000000,-90,255_$GNGGA,195757.00,0438.09557,N,07404.10360,W,1,12,0.62,2597.8,M,4.7,M,,*5F_
2,2,240,0,0,0.000000,-94,255_$GNGGA,195745.00,0438.09548,N,07404.10368,W,1,12,0.58,2597.9,M,4.7,M,,*52_
2,2,240,0,0,0.000000,-90,255_$GNGGA,195734.00,0438.09540,N,07404.10379,W,1,12,0.57,2597.9,M,4.7,M,,*53_
2,2,240,0,0,0.000000,-16,255_$GNGGA,195723.00,0438.09530,N,07404.10385,W,1,12,0.57,2597.7,M,4.7,M,,*5F_
2,2,240,0,0,0.000000,-88,255_$GNGGA,195706.00,0438.09520,N,07404.10392,W,1,12,0.57,2596.9,M,4.7,M,,*50_
2,2,240,0,0,0.000000,-92,255_$GNGGA,195655.00,0438.09521,N,07404.10402,W,1,12,0.57,2596.5,M,4.7,M,,*54_
2,2,240,0,0,0.000000,-92,255_$GNGGA,195644.00,0438.09532,N,07404.10421,W,1,12,0.57,2596.2,M,4.7,M,,*50_
2,2,240,0,0,0.000000,-91,255_$GNGGA,195633.00,0438.09540,N,07404.10444,W,1,12,0.57,2596.4,M,4.7,M,,*50_
2,2,240,0,0,0.000000,-20,255_$GNGGA,195621.00,0438.09554,N,07404.10479,W,1,12,0.57,2596.4,M,4.7,M,,*58_
2,2,240,0,0,0.000000,-20,255_$GNGGA,195604.00,0438.09582,N,07404.10534,W,1,12,0.60,2595.3,M,4.7,M,,*5C_
2,2,240,0,0,0.000000,-91,255_$GNGGA,195553.00,0438.09593,N,07404.10570,W,1,12,0.60,2595.2,M,4.7,M,,*5C_
2,2,240,0,0,0.000000,-91,255_$GNGGA,195541.00,0438.09600,N,07404.10586,W,1,12,0.60,2595.1,M,4.7,M,,*5C_
2,2,240,0,0,0.000000,-92,255_$GNGGA,195529.00,0438.09597,N,07404.10567,W,1,12,0.60,2595.2,M,4.7,M,,*53_
2,2,240,0,0,0.000000,-91,255_$GNGGA,195517.00,0438.09597,N,07404.10514,W,1,12,0.60,2594.7,M,4.7,M,,*5E_
2,2,240,0,0,0.000000,-92,255_$GNGGA,195506.00,0438.09603,N,07404.10453,W,1,12,0.60,2594.1,M,4.7,M,,*54_
2,2,240,0,0,0.000000,-17,255_$GNGGA,195455.00,0438.09610,N,07404.10407,W,1,12,0.61,2593.1,M,4.7,M,,*56_
2,2,240,0,0,0.000000,-92,255_$GNGGA,195444.00,0438.09607,N,07404.10384,W,1,12,0.61,2592.1,M,4.7,M,,*5D_
2,2,240,0,0,0.000000,-17,255_$GNGGA,195433.00,0438.09608,N,07404.10380,W,1,12,0.61,2591.6,M,4.7,M,,*52_
2,2,240,0,0,0.000000,-17,255_$GNGGA,195416.00,0438.09606,N,07404.10410,W,1,12,0.61,2590.8,M,4.7,M,,*5A_
2,2,240,0,0,0.000000,-93,255_$GNGGA,195405.00,0438.09604,N,07404.10441,W,1,12,0.62,2590.5,M,4.7,M,,*50_
2,2,240,0,0,0.000000,-17,255_$GNGGA,195353.00,0438.09595,N,07404.10450,W,1,12,0.61,2590.4,M,4.7,M,,*5D_
2,2,240,0,0,0.000000,-92,255_$GNGGA,195341.00,0438.09589,N,07404.10456,W,1,12,0.60,2590.3,M,4.7,M,,*53_
2,2,240,0,0,0.000000,-18,255_$GNGGA,195330.00,0438.09586,N,07404.10478,W,1,12,0.63,2590.0,M,4.7,M,,*56_
2,2,240,0,0,0.000000,-92,255_$GNGGA,195318.00,0438.09592,N,07404.10482,W,1,12,0.56,2589.6,M,4.7,M,,*54_
2,2,240,0,0,0.000000,-94,255_$GNGGA,195307.00,0438.09602,N,07404.10471,W,1,12,0.60,2589.4,M,4.7,M,,*5B_
2,2,240,0,0,0.000000,-92,255_$GNGGA,195256.00,0438.09612,N,07404.10467,W,1,12,0.60,2589.3,M,4.7,M,,*5F_
2,2,240,0,0,0.000000,-91,255_$GNGGA,195245.00,0438.09624,N,07404.10453,W,1,12,0.61,2589.0,M,4.7,M,,*5D_
2,2,240,0,0,0.000000,-90,255_$GNGGA,195233.00,0438.09633,N,07404.10436,W,1,12,0.59,2588.6,M,4.7,M,,*55_
2,2,240,0,0,0.000000,-92,255_$GNGGA,195221.00,0438.09634,N,07404.10430,W,1,12,0.55,2588.2,M,4.7,M,,*5F_
2,2,240,0,0,0.000000,-92,255_$GNGGA,195209.00,0438.09628,N,07404.10410,W,1,12,0.61,2587.9,M,4.7,M,,*59_
2,2,240,0,0,0.000000,-94,255_$GNGGA,195158.00,0438.09619,N,07404.10386,W,1,12,0.59,2587.4,M,4.7,M,,*52_
2,2,240,0,0,0.000000,-92,255_$GNGGA,195147.00,0438.09609,N,07404.10345,W,1,12,0.59,2587.1,M,4.7,M,,*57_
2,2,240,0,0,0.000000,-17,255_$GNGGA,195136.00,0438.09603,N,07404.10297,W,1,12,0.61,2587.6,M,4.7,M,,*59_
2,2,240,0,0,0.000000,-17,255_$GNGGA,195119.00,0438.09603,N,07404.10263,W,1,12,0.59,2588.6,M,4.7,M,,*5B_
2,2,240,0,0,0.000000,-91,255_$GNGGA,195108.00,0438.09603,N,07404.10262,W,1,12,0.59,2589.2,M,4.7,M,,*5F_
2,2,240,0,0,0.000000,-92,255_$GNGGA,195057.00,0438.09598,N,07404.10279,W,1,12,0.56,2589.7,M,4.7,M,,*55_
2,2,240,0,0,0.000000,-22,255_$GNGGA,195045.00,0438.09593,N,07404.10285,W,1,12,0.56,2590.0,M,4.7,M,,*51_
2,2,240,0,0,0.000000,-17,255_$GNGGA,195028.00,0438.09583,N,07404.10305,W,1,12,0.58,2590.0,M,4.7,M,,*5C_
2,2,240,0,0,0.000000,-94,255_$GNGGA,195017.00,0438.09573,N,07404.10314,W,1,12,0.55,2589.9,M,4.7,M,,*53_
2,2,240,0,0,0.000000,-91,255_$GNGGA,195005.00,0438.09568,N,07404.10338,W,1,12,0.59,2590.3,M,4.7,M,,*5A_
2,2,240,0,0,0.000000,-91,255_$GNGGA,194953.00,0438.09568,N,07404.10360,W,1,12,0.59,2590.6,M,4.7,M,,*59_
2,2,240,0,0,0.000000,-92,255_$GNGGA,194941.00,0438.09571,N,07404.10380,W,1,12,0.59,2591.2,M,4.7,M,,*59_
2,2,240,0,0,0.000000,-91,255_$GNGGA,194930.00,0438.09576,N,07404.10385,W,1,12,0.55,2591.8,M,4.7,M,,*5B_
2,2,240,0,0,0.000000,-19,255_$GNGGA,194919.00,0438.09579,N,07404.10392,W,1,12,0.55,2592.4,M,4.7,M,,*56_
2,2,240,0,0,0.000000,-88,255_$GNGGA,194908.00,0438.09585,N,07404.10393,W,1,12,0.55,2592.8,M,4.7,M,,*58_
2,2,240,0,0,0.000000,-17,255_$GNGGA,194857.00,0438.09593,N,07404.10403,W,1,12,0.55,2593.3,M,4.7,M,,*50_
2,2,240,0,0,0.000000,-18,255_$GNGGA,194840.00,0438.09606,N,07404.10412,W,1,12,0.55,2594.1,M,4.7,M,,*5C_
2,2,240,0,0,0.000000,-94,255_$GNGGA,194829.00,0438.09618,N,07404.10440,W,1,12,0.58,2593.8,M,4.7,M,,*58_
2,2,240,0,0,0.000000,-17,255_$GNGGA,194817.00,0438.09635,N,07404.10474,W,1,12,0.55,2593.2,M,4.7,M,,*5A_
2,2,240,0,0,0.000000,-17,255_$GNGGA,194800.00,0438.09647,N,07404.10503,W,1,12,0.56,2594.7,M,4.7,M,,*59_
2,2,240,0,0,0.000000,-90,255_$GNGGA,194749.00,0438.09646,N,07404.10530,W,1,12,0.56,2595.7,M,4.7,M,,*5B_
2,2,240,0,0,0.000000,-17,255_$GNGGA,194737.00,0438.09636,N,07404.10545,W,1,12,0.56,2596.0,M,4.7,M,,*53_
2,2,240,0,0,0.000000,-16,255_$GNGGA,194720.00,0438.09631,N,07404.10537,W,1,12,0.58,2595.9,M,4.7,M,,*53_
2,2,240,0,0,0.000000,-94,255_$GNGGA,194709.00,0438.09630,N,07404.10523,W,1,12,0.60,2595.9,M,4.7,M,,*57_
2,2,240,0,0,0.000000,-91,255_$GNGGA,194657.00,0438.09627,N,07404.10513,W,1,12,0.55,2595.5,M,4.7,M,,*52_
2,2,240,0,0,0.000000,-94,255_$GNGGA,194645.00,0438.09623,N,07404.10501,W,1,12,0.55,2595.4,M,4.7,M,,*57_
2,2,240,0,0,0.000000,-91,255_$GNGGA,194633.00,0438.09620,N,07404.10487,W,1,12,0.56,2595.5,M,4.7,M,,*58_
2,2,240,0,0,0.000000,-92,255_$GNGGA,194622.00,0438.09615,N,07404.10475,W,1,12,0.58,2595.7,M,4.7,M,,*5F_
2,2,240,0,0,0.000000,-24,255_$GNGGA,194611.00,0438.09610,N,07404.10460,W,1,12,0.58,2595.6,M,4.7,M,,*5F_
2,2,240,0,0,0.000000,-91,255_$GNGGA,194600.00,0438.09602,N,07404.10440,W,1,12,0.55,2595.4,M,4.7,M,,*51_
2,2,240,0,0,0.000000,-17,255_$GNGGA,194549.00,0438.09591,N,07404.10411,W,1,12,0.55,2595.3,M,4.7,M,,*55_
2,2,240,0,0,0.000000,-22,255_$GNGGA,194532.00,0438.09574,N,07404.10378,W,1,12,0.58,2595.6,M,4.7,M,,*52_
2,2,240,0,0,0.000000,-91,255_$GNGGA,194521.00,0438.09568,N,07404.10368,W,1,12,0.58,2595.6,M,4.7,M,,*5C_
2,2,240,0,0,0.000000,-90,255_$GNGGA,194509.00,0438.09562,N,07404.10356,W,1,12,0.58,2595.2,M,4.7,M,,*55_
2,2,240,0,0,0.000000,-91,255_$GNGGA,194458.00,0438.09558,N,07404.10342,W,1,12,0.55,2594.8,M,4.7,M,,*5A_
2,2,240,0,0,0.000000,-91,255_$GNGGA,194446.00,0438.09557,N,07404.10317,W,1,12,0.54,2594.0,M,4.7,M,,*53_
2,2,240,0,0,0.000000,-92,255_$GNGGA,194434.00,0438.09551,N,07404.10286,W,1,12,0.55,2593.2,M,4.7,M,,*5D_
2,2,240,0,0,0.000000,-91,255_$GNGGA,194423.00,0438.09550,N,07404.10297,W,1,12,0.56,2593.1,M,4.7,M,,*5A_
2,2,240,0,0,0.000000,-92,255_$GNGGA,194412.00,0438.09546,N,07404.10307,W,1,12,0.55,2593.1,M,4.7,M,,*54_
2,2,240,0,0,0.000000,-92,255_$GNGGA,194401.00,0438.09542,N,07404.10318,W,1,12,0.58,2593.2,M,4.7,M,,*52_
2,2,240,0,0,0.000000,-91,255_$GNGGA,194349.00,0438.09531,N,07404.10323,W,1,12,0.58,2593.7,M,4.7,M,,*50_
2,2,240,0,0,0.000000,-90,255_$GNGGA,194337.00,0438.09529,N,07404.10292,W,1,12,0.59,2594.1,M,4.7,M,,*5B_
2,2,240,0,0,0.000000,-92,255_$GNGGA,194325.00,0438.09524,N,07404.10287,W,1,12,0.58,2594.8,M,4.7,M,,*59_
2,2,240,0,0,0.000000,-92,255_$GNGGA,194313.00,0438.09524,N,07404.10295,W,1,12,0.58,2595.3,M,4.7,M,,*55_
2,2,240,0,0,0.000000,-89,255_$GNGGA,194302.00,0438.09530,N,07404.10305,W,1,12,0.57,2595.9,M,4.7,M,,*5D_
2,2,240,0,0,0.000000,-18,255_$GNGGA,194251.00,0438.09538,N,07404.10309,W,1,12,0.55,2596.3,M,4.7,M,,*55_
2,2,240,0,0,0.000000,-92,255_$GNGGA,194240.00,0438.09543,N,07404.10314,W,1,12,0.55,2596.8,M,4.7,M,,*5E_
2,2,240,0,0,0.000000,-17,255_$GNGGA,194228.00,0438.09550,N,07404.10324,W,1,12,0.59,2597.0,M,4.7,M,,*54_
2,2,240,0,0,0.000000,-17,255_$GNGGA,194211.00,0438.09547,N,07404.10341,W,1,12,0.57,2597.5,M,4.7,M,,*50_
2,2,240,0,0,0.000000,-96,255_$GNGGA,194200.00,0438.09541,N,07404.10351,W,1,12,0.57,2597.5,M,4.7,M,,*57_
2,2,240,0,0,0.000000,-91,255_$GNGGA,194148.00,0438.09527,N,07404.10331,W,1,12,0.58,2597.2,M,4.7,M,,*56_
2,2,240,0,0,0.000000,-94,255_$GNGGA,194137.00,0438.09517,N,07404.10341,W,1,12,0.58,2597.1,M,4.7,M,,*59_
2,2,240,0,0,0.000000,-91,255_$GNGGA,194125.00,0438.09509,N,07404.10338,W,1,12,0.58,2596.9,M,4.7,M,,*52_
2,2,240,0,0,0.000000,-84,255_$GNGGA,194114.00,0438.09512,N,07404.10290,W,1,12,0.59,2596.5,M,4.7,M,,*54_
2,2,240,0,0,0.000000,-17,255_$GNGGA,194103.00,0438.09517,N,07404.10235,W,1,12,0.61,2596.4,M,4.7,M,,*52_
2,2,240,0,0,0.000000,-90,255_$GNGGA,194052.00,0438.09517,N,07404.10225,W,1,12,0.60,2596.6,M,4.7,M,,*55_
2,2,240,0,0,0.000000,-92,255_$GNGGA,194040.00,0438.09520,N,07404.10245,W,1,12,0.58,2596.5,M,4.7,M,,*5C_
2,2,240,0,0,0.000000,-87,255_$GNGGA,194029.00,0438.09531,N,07404.10276,W,1,12,0.60,2596.6,M,4.7,M,,*5B_
2,2,240,0,0,0.000000,-20,255_$GNGGA,194017.00,0438.09542,N,07404.10299,W,1,12,0.62,2596.6,M,4.7,M,,*51_
2,2,240,0,0,0.000000,-89,255_$GNGGA,193959.00,0438.09558,N,07404.10319,W,1,12,0.60,2595.5,M,4.7,M,,*55_
2,2,240,0,0,0.000000,-92,255_$GNGGA,193947.00,0438.09567,N,07404.10336,W,1,12,0.60,2595.3,M,4.7,M,,*5D_
2,2,240,0,0,0.000000,-89,255_$GNGGA,193936.00,0438.09580,N,07404.10361,W,1,12,0.59,2595.4,M,4.7,M,,*5D_
2,2,240,0,0,0.000000,-91,255_$GNGGA,193924.00,0438.09594,N,07404.10400,W,1,12,0.58,2595.5,M,4.7,M,,*5B_
2,2,240,0,0,0.000000,-90,255_$GNGGA,193912.00,0438.09604,N,07404.10466,W,1,12,0.58,2595.6,M,4.7,M,,*57_
2,2,240,0,0,0.000000,-91,255_$GNGGA,193901.00,0438.09614,N,07404.10528,W,1,12,0.58,2595.3,M,4.7,M,,*5A_
2,2,240,0,0,0.000000,-92,255_$GNGGA,193850.00,0438.09619,N,07404.10566,W,1,12,0.56,2595.4,M,4.7,M,,*51_
2,2,240,0,0,0.000000,-91,255_$GNGGA,193839.00,0438.09616,N,07404.10584,W,1,12,0.60,2595.8,M,4.7,M,,*54_
2,2,240,0,0,0.000000,-90,255_$GNGGA,193827.00,0438.09611,N,07404.10591,W,1,12,0.60,2596.1,M,4.7,M,,*52_
2,2,240,0,0,0.000000,-87,255_$GNGGA,193815.00,0438.09605,N,07404.10606,W,1,12,0.56,2595.8,M,4.7,M,,*54_
2,2,240,0,0,0.000000,-96,255_$GNGGA,193803.00,0438.09602,N,07404.10635,W,1,12,0.56,2595.3,M,4.7,M,,*5F_
2,2,240,0,0,0.000000,-92,255_$GNGGA,193752.00,0438.09601,N,07404.10653,W,1,12,0.56,2594.9,M,4.7,M,,*5C_
2,2,240,0,0,0.000000,-17,255_$GNGGA,193741.00,0438.09600,N,07404.10651,W,1,12,0.61,2594.7,M,4.7,M,,*57_
2,2,240,0,0,0.000000,-17,255_$GNGGA,193724.00,0438.09604,N,07404.10649,W,1,12,0.60,2594.3,M,4.7,M,,*5C_
2,2,240,0,0,0.000000,-91,255_$GNGGA,193713.00,0438.09607,N,07404.10660,W,1,12,0.57,2594.0,M,4.7,M,,*57_
2,2,240,0,0,0.000000,-91,255_$GNGGA,193702.00,0438.09611,N,07404.10672,W,1,12,0.56,2593.6,M,4.7,M,,*53_
2,2,240,0,0,0.000000,-90,255_$GNGGA,193651.00,0438.09619,N,07404.10692,W,1,12,0.61,2593.2,M,4.7,M,,*52_
2,2,240,0,0,0.000000,-17,255_$GNGGA,193639.00,0438.09623,N,07404.10712,W,1,12,0.55,2592.8,M,4.7,M,,*50_
2,2,240,0,0,0.000000,-18,255_$GNGGA,193622.00,0438.09639,N,07404.10742,W,1,12,0.55,2591.7,M,4.7,M,,*58_
2,2,240,0,0,0.000000,-91,255_$GNGGA,193611.00,0438.09651,N,07404.10767,W,1,12,0.55,2591.2,M,4.7,M,,*54_
2,2,240,0,0,0.000000,-92,255_$GNGGA,193559.00,0438.09657,N,07404.10782,W,1,12,0.56,2591.1,M,4.7,M,,*56_
2,2,240,0,0,0.000000,-94,255_$GNGGA,193547.00,0438.09659,N,07404.10779,W,1,12,0.61,2591.0,M,4.7,M,,*56_
2,2,240,0,0,0.000000,-92,255_$GNGGA,193535.00,0438.09652,N,07404.10765,W,1,12,0.63,2590.9,M,4.7,M,,*5F_
2,2,240,0,0,0.000000,-92,255_$GNGGA,193524.00,0438.09643,N,07404.10742,W,1,12,0.63,2591.0,M,4.7,M,,*52_
2,2,240,0,0,0.000000,-18,255_$GNGGA,193513.00,0438.09631,N,07404.10723,W,1,12,0.59,2591.6,M,4.7,M,,*5B_
2,2,240,0,0,0.000000,-90,255_$GNGGA,193502.00,0438.09625,N,07404.10722,W,1,12,0.63,2592.4,M,4.7,M,,*57_
2,2,240,0,0,0.000000,-17,255_$GNGGA,193451.00,0438.09624,N,07404.10717,W,1,12,0.57,2592.7,M,4.7,M,,*53_
2,2,240,0,0,0.000000,-92,255_$GNGGA,193439.00,0438.09625,N,07404.10711,W,1,12,0.61,2593.1,M,4.7,M,,*58_
2,2,240,0,0,0.000000,-16,255_$GNGGA,193428.00,0438.09628,N,07404.10703,W,1,12,0.60,2593.7,M,4.7,M,,*51_
2,2,240,0,0,0.000000,-94,255_$GNGGA,193416.00,0438.09634,N,07404.10690,W,1,12,0.60,2594.1,M,4.7,M,,*5B_
2,2,240,0,0,0.000000,-92,255_$GNGGA,193405.00,0438.09635,N,07404.10659,W,1,12,0.61,2594.6,M,4.7,M,,*5B_
2,2,240,0,0,0.000000,-90,255_$GNGGA,193354.00,0438.09628,N,07404.10632,W,1,12,0.61,2594.6,M,4.7,M,,*59_
2,2,240,0,0,0.000000,-88,255_$GNGGA,193343.00,0438.09618,N,07404.10600,W,1,12,0.60,2594.9,M,4.7,M,,*53_
2,2,240,0,0,0.000000,-96,255_$GNGGA,193331.00,0438.09610,N,07404.10561,W,1,12,0.59,2595.0,M,4.7,M,,*58_
2,2,240,0,0,0.000000,-94,255_$GNGGA,193319.00,0438.09608,N,07404.10551,W,1,12,0.59,2595.3,M,4.7,M,,*5B_
2,2,240,0,0,0.000000,-91,255_$GNGGA,193307.00,0438.09609,N,07404.10558,W,1,12,0.58,2595.6,M,4.7,M,,*58_
2,2,240,0,0,0.000000,-92,255_$GNGGA,193255.00,0438.09612,N,07404.10559,W,1,12,0.58,2595.5,M,4.7,M,,*56_
2,2,240,0,0,0.000000,-92,255_$GNGGA,193244.00,0438.09619,N,07404.10569,W,1,12,0.59,2595.8,M,4.7,M,,*52_
2,2,240,0,0,0.000000,-92,255_$GNGGA,193233.00,0438.09623,N,07404.10596,W,1,12,0.59,2596.2,M,4.7,M,,*52_
2,2,240,0,0,0.000000,-18,255_$GNGGA,193222.00,0438.09623,N,07404.10610,W,1,12,0.58,2596.3,M,4.7,M,,*5F_
2,2,240,0,0,0.000000,-92,255_$GNGGA,193210.00,0438.09617,N,07404.10622,W,1,12,0.59,2596.2,M,4.7,M,,*58_
2,2,240,0,0,0.000000,-16,255_$GNGGA,193159.00,0438.09611,N,07404.10627,W,1,12,0.58,2596.5,M,4.7,M,,*53_
2,2,240,0,0,0.000000,-94,255_$GNGGA,193147.00,0438.09609,N,07404.10625,W,1,12,0.58,2596.9,M,4.7,M,,*5B_
2,2,240,0,0,0.000000,-102,5_$GNGGA,193135.00,0438.09609,N,07404.10638,W,1,12,0.58,2596.8,M,4.7,M,,*53_
2,2,240,0,0,0.000000,-94,255_$GNGGA,193115.00,0438.09598,N,07404.10641,W,1,12,0.58,2596.8,M,4.7,M,,*54_
2,2,240,0,0,0.000000,-17,255_$GNGGA,193103.00,0438.09592,N,07404.10632,W,1,12,0.58,2597.2,M,4.7,M,,*56_
2,2,240,0,0,0.000000,-18,255_$GNGGA,193046.00,0438.09583,N,07404.10582,W,1,12,0.58,2597.1,M,4.7,M,,*5D_
2,2,240,0,0,0.000000,-91,255_$GNGGA,193035.00,0438.09578,N,07404.10567,W,1,12,0.58,2597.0,M,4.7,M,,*57_
2,2,240,0,0,0.000000,-94,255_$GNGGA,193023.00,0438.09574,N,07404.10557,W,1,12,0.58,2597.4,M,4.7,M,,*5B_
2,2,240,0,0,0.000000,-94,255_$GNGGA,193011.00,0438.09569,N,07404.10556,W,1,12,0.58,2597.6,M,4.7,M,,*55_
2,2,240,0,0,0.000000,-91,255_$GNGGA,192959.00,0438.09575,N,07404.10554,W,1,12,0.58,2597.4,M,4.7,M,,*5C_
2,2,240,0,0,0.000000,-91,255_$GNGGA,192948.00,0438.09586,N,07404.10528,W,1,12,0.55,2597.3,M,4.7,M,,*51_
2,2,240,0,0,0.000000,-19,255_$GNGGA,192937.00,0438.09585,N,07404.10492,W,1,12,0.55,2597.2,M,4.7,M,,*5B_
2,2,240,0,0,0.000000,-91,255_$GNGGA,192926.00,0438.09576,N,07404.10445,W,1,12,0.59,2597.3,M,4.7,M,,*50_
2,2,240,0,0,0.000000,-90,255_$GNGGA,192915.00,0438.09568,N,07404.10403,W,1,12,0.55,2597.1,M,4.7,M,,*53_
2,2,240,0,0,0.000000,-17,255_$GNGGA,192858.00,0438.09557,N,07404.10346,W,1,12,0.57,2596.5,M,4.7,M,,*56_
2,2,240,0,0,0.000000,-92,255_$GNGGA,192847.00,0438.09559,N,07404.10330,W,1,12,0.55,2596.1,M,4.7,M,,*51_
2,2,240,0,0,0.000000,-90,255_$GNGGA,192835.00,0438.09559,N,07404.10324,W,1,12,0.55,2595.7,M,4.7,M,,*54_
2,2,240,0,0,0.000000,-94,255_$GNGGA,192824.00,0438.09557,N,07404.10321,W,1,12,0.55,2595.1,M,4.7,M,,*59_
2,2,240,0,0,0.000000,-91,255_$GNGGA,192812.00,0438.09554,N,07404.10320,W,1,12,0.55,2595.2,M,4.7,M,,*5D_
2,2,240,0,0,0.000000,-92,255_$GNGGA,192801.00,0438.09557,N,07404.10325,W,1,12,0.56,2594.9,M,4.7,M,,*50_
2,2,240,0,0,0.000000,-17,255_$GNGGA,192750.00,0438.09553,N,07404.10321,W,1,12,0.55,2594.2,M,4.7,M,,*53_
2,2,240,0,0,0.000000,-18,255_$GNGGA,192733.00,0438.09530,N,07404.10319,W,1,12,0.56,2593.1,M,4.7,M,,*5F_
2,2,240,0,0,0.000000,-90,255_$GNGGA,192722.00,0438.09517,N,07404.10311,W,1,12,0.56,2593.1,M,4.7,M,,*52_
2,2,240,0,0,0.000000,-92,255_$GNGGA,192711.00,0438.09510,N,07404.10299,W,1,12,0.60,2592.8,M,4.7,M,,*59_
2,2,240,0,0,0.000000,-92,255_$GNGGA,192700.00,0438.09501,N,07404.10280,W,1,12,0.57,2592.7,M,4.7,M,,*5A_
2,2,240,0,0,0.000000,-92,255_$GNGGA,192648.00,0438.09493,N,07404.10262,W,1,12,0.57,2592.7,M,4.7,M,,*51_
2,2,240,0,0,0.000000,-91,255_$GNGGA,192636.00,0438.09488,N,07404.10254,W,1,12,0.55,2592.4,M,4.7,M,,*56_
2,2,240,0,0,0.000000,-92,255_$GNGGA,192624.00,0438.09486,N,07404.10252,W,1,12,0.55,2591.7,M,4.7,M,,*5D_
2,2,240,0,0,0.000000,-94,255_$GNGGA,192613.00,0438.09484,N,07404.10244,W,1,12,0.55,2591.4,M,4.7,M,,*5F_
2,2,240,0,0,0.000000,-16,255_$GNGGA,192602.00,0438.09481,N,07404.10238,W,1,12,0.58,2591.2,M,4.7,M,,*5A_
2,2,240,0,0,0.000000,-90,255_$GNGGA,192551.00,0438.09477,N,07404.10207,W,1,12,0.58,2590.8,M,4.7,M,,*51_
2,2,240,0,0,0.000000,-18,255_$GNGGA,192540.00,0438.09478,N,07404.10162,W,1,12,0.55,2590.1,M,4.7,M,,*5A_
2,2,240,0,0,0.000000,-19,255_$GNGGA,192523.00,0438.09475,N,07404.10158,W,1,12,0.55,2590.0,M,4.7,M,,*5A_
2,2,240,0,0,0.000000,-91,255_$GNGGA,192512.00,0438.09472,N,07404.10168,W,1,12,0.55,2590.0,M,4.7,M,,*5C_
2,2,240,0,0,0.000000,-94,255_$GNGGA,192500.00,0438.09471,N,07404.10176,W,1,12,0.55,2589.9,M,4.7,M,,*52_
2,2,240,0,0,0.000000,-90,255_$GNGGA,192449.00,0438.09464,N,07404.10164,W,1,12,0.57,2589.8,M,4.7,M,,*5A_
2,2,240,0,0,0.000000,-90,255_$GNGGA,192437.00,0438.09456,N,07404.10158,W,1,12,0.56,2589.6,M,4.7,M,,*52_
2,2,240,0,0,0.000000,-90,255_$GNGGA,192425.00,0438.09452,N,07404.10159,W,1,12,0.58,2589.5,M,4.7,M,,*59_
2,2,240,0,0,0.000000,-85,255_$GNGGA,192414.00,0438.09447,N,07404.10153,W,1,12,0.58,2589.5,M,4.7,M,,*55_
2,2,240,0,0,0.000000,-92,255_$GNGGA,192403.00,0438.09449,N,07404.10182,W,1,12,0.57,2589.3,M,4.7,M,,*58_
2,2,240,0,0,0.000000,-91,255_$GNGGA,192352.00,0438.09457,N,07404.10236,W,1,12,0.58,2589.0,M,4.7,M,,*54_
2,2,240,0,0,0.000000,-92,255_$GNGGA,192340.00,0438.09465,N,07404.10276,W,1,12,0.57,2589.0,M,4.7,M,,*5D_
2,2,240,0,0,0.000000,-18,255_$GNGGA,192328.00,0438.09474,N,07404.10288,W,1,12,0.55,2589.0,M,4.7,M,,*50_
2,2,240,0,0,0.000000,-90,255_$GNGGA,192316.00,0438.09481,N,07404.10283,W,1,12,0.55,2589.4,M,4.7,M,,*58_
2,2,240,0,0,0.000000,-94,255_$GNGGA,192259.00,0438.09490,N,07404.10272,W,1,12,0.55,2590.3,M,4.7,M,,*53_
2,2,240,0,0,0.000000,-92,255_$GNGGA,192248.00,0438.09492,N,07404.10239,W,1,12,0.55,2590.7,M,4.7,M,,*5A_
2,2,240,0,0,0.000000,-94,255_$GNGGA,192236.00,0438.09490,N,07404.10230,W,1,12,0.55,2590.6,M,4.7,M,,*59_
2,2,240,0,0,0.000000,-94,255_$GNGGA,192224.00,0438.09489,N,07404.10229,W,1,12,0.56,2590.6,M,4.7,M,,*59_
2,2,240,0,0,0.000000,-85,255_$GNGGA,192213.00,0438.09497,N,07404.10247,W,1,12,0.56,2591.1,M,4.7,M,,*5C_
2,2,240,0,0,0.000000,-93,255_$GNGGA,192157.00,0438.09500,N,07404.10259,W,1,12,0.55,2592.3,M,4.7,M,,*5D_
2,2,240,0,0,0.000000,-91,255_$GNGGA,192146.00,0438.09495,N,07404.10262,W,1,12,0.55,2593.3,M,4.7,M,,*59_
2,2,240,0,0,0.000000,-94,255_$GNGGA,192135.00,0438.09492,N,07404.10263,W,1,12,0.58,2593.9,M,4.7,M,,*5C_
2,2,240,0,0,0.000000,-92,255_$GNGGA,192124.00,0438.09491,N,07404.10264,W,1,12,0.58,2594.3,M,4.7,M,,*55_
2,2,240,0,0,0.000000,-94,255_$GNGGA,192112.00,0438.09491,N,07404.10260,W,1,12,0.54,2594.6,M,4.7,M,,*5D_
2,2,240,0,0,0.000000,-94,255_$GNGGA,192100.00,0438.09494,N,07404.10268,W,1,12,0.54,2594.8,M,4.7,M,,*5D_
2,2,240,0,0,0.000000,-90,255_$GNGGA,192048.00,0438.09505,N,07404.10289,W,1,12,0.55,2595.0,M,4.7,M,,*5E_
2,2,240,0,0,0.000000,-91,255_$GNGGA,192036.00,0438.09518,N,07404.10310,W,1,12,0.55,2595.3,M,4.7,M,,*59_
2,2,240,0,0,0.000000,-94,255_$GNGGA,192025.00,0438.09531,N,07404.10337,W,1,12,0.58,2595.4,M,4.7,M,,*5F_
2,2,240,0,0,0.000000,-17,255_$GNGGA,192014.00,0438.09541,N,07404.10362,W,1,12,0.58,2595.3,M,4.7,M,,*5D_
2,2,240,0,0,0.000000,-92,255_$GNGGA,192003.00,0438.09543,N,07404.10363,W,1,12,0.55,2594.7,M,4.7,M,,*50_
2,2,240,0,0,0.000000,-17,255_$GNGGA,191951.00,0438.09536,N,07404.10347,W,1,12,0.58,2594.1,M,4.7,M,,*52_
2,2,240,0,0,0.000000,-90,255_$GNGGA,191934.00,0438.09520,N,07404.10292,W,1,12,0.58,2593.1,M,4.7,M,,*58_
2,2,240,0,0,0.000000,-92,255_$GNGGA,191923.00,0438.09519,N,07404.10285,W,1,12,0.56,2592.6,M,4.7,M,,*5A_
2,2,240,0,0,0.000000,-92,255_$GNGGA,191911.00,0438.09516,N,07404.10283,W,1,12,0.62,2592.3,M,4.7,M,,*50_
2,2,240,0,0,0.000000,-91,255_$GNGGA,191859.00,0438.09511,N,07404.10286,W,1,12,0.61,2592.2,M,4.7,M,,*5D_
2,2,240,0,0,0.000000,-92,255_$GNGGA,191847.00,0438.09509,N,07404.10290,W,1,12,0.61,2591.6,M,4.7,M,,*5B_
2,2,240,0,0,0.000000,-92,255_$GNGGA,191835.00,0438.09505,N,07404.10291,W,1,12,0.61,2591.2,M,4.7,M,,*57_
2,2,240,0,0,0.000000,-94,255_$GNGGA,191824.00,0438.09503,N,07404.10289,W,1,12,0.61,2591.2,M,4.7,M,,*58_
2,2,240,0,0,0.000000,-89,255_$GNGGA,191813.00,0438.09505,N,07404.10292,W,1,12,0.61,2591.2,M,4.7,M,,*50_
2,2,240,0,0,0.000000,-92,255_$GNGGA,191802.00,0438.09505,N,07404.10288,W,1,12,0.61,2591.2,M,4.7,M,,*5B_
2,2,240,0,0,0.000000,-94,255_$GNGGA,191750.00,0438.09504,N,07404.10279,W,1,12,0.57,2591.4,M,4.7,M,,*5F_
2,2,240,0,0,0.000000,-88,255_$GNGGA,191738.00,0438.09498,N,07404.10268,W,1,12,0.57,2591.6,M,4.7,M,,*57_
2,2,240,0,0,0.000000,-17,255_$GNGGA,191727.00,0438.09492,N,07404.10255,W,1,12,0.61,2591.6,M,4.7,M,,*58_
2,2,240,0,0,0.000000,-94,255_$GNGGA,191709.00,0438.09484,N,07404.10246,W,1,12,0.62,2591.1,M,4.7,M,,*55_
2,2,240,0,0,0.000000,-103,5_$GNGGA,191625.00,0438.09478,N,07404.10352,W,1,12,0.65,2589.2,M,4.7,M,,*50_
2,2,240,0,0,0.000000,-92,5_$GNGGA,191542.00,0438.09494,N,07404.10379,W,1,12,0.65,2588.2,M,4.7,M,,*58_
2,2,240,0,0,0.000000,-105,5_$GNGGA,191459.00,0438.09515,N,07404.10541,W,1,12,0.62,2588.0,M,4.7,M,,*53_
2,2,240,0,0,0.000000,-103,5_$GNGGA,191415.00,0438.09512,N,07404.10575,W,1,12,0.61,2588.2,M,4.7,M,,*5A_
2,2,240,0,0,0.000000,-102,5_$GNGGA,191332.00,0438.09513,N,07404.10537,W,1,12,0.61,2589.0,M,4.7,M,,*5C_
2,2,240,0,0,0.000000,-103,5_$GNGGA,191249.00,0438.09519,N,07404.10513,W,1,12,0.61,2589.6,M,4.7,M,,*5B_
2,2,240,0,0,0.000000,-106,5_$GNGGA,191206.00,0438.09510,N,07404.10429,W,1,12,0.61,2589.4,M,4.7,M,,*53_
2,2,240,0,0,0.000000,-102,5_$GNGGA,191122.00,0438.09527,N,07404.10480,W,1,12,0.61,2589.3,M,4.7,M,,*56_
2,2,240,0,0,0.000000,-103,5_$GNGGA,191038.00,0438.09532,N,07404.10533,W,1,12,0.61,2589.7,M,4.7,M,,*55_
2,2,240,0,0,0.000000,-104,5_$GNGGA,190955.00,0438.09517,N,07404.10411,W,1,12,0.59,2589.6,M,4.7,M,,*5A_
2,2,240,0,0,0.000000,-103,5_$GNGGA,190912.00,0438.09498,N,07404.10328,W,1,12,0.60,2589.4,M,4.7,M,,*5A_
2,2,240,0,0,0.000000,-103,5_$GNGGA,190829.00,0438.09500,N,07404.10376,W,1,12,0.60,2590.1,M,4.7,M,,*55_
2,2,240,0,0,0.000000,-104,5_$GNGGA,190745.00,0438.09510,N,07404.10409,W,1,12,0.59,2590.9,M,4.7,M,,*5C_
2,2,240,0,0,0.000000,-103,5_$GNGGA,190702.00,0438.09502,N,07404.10440,W,1,12,0.59,2592.7,M,4.7,M,,*5D_
2,2,240,0,0,0.000000,-103,5_$GNGGA,190619.00,0438.09489,N,07404.10379,W,1,12,0.54,2593.5,M,4.7,M,,*57_
2,2,240,0,0,0.000000,-106,5_$GNGGA,190536.00,0438.09479,N,07404.10370,W,1,12,0.64,2594.1,M,4.7,M,,*5F_
2,2,240,0,0,0.000000,-103,5_$GNGGA,190452.00,0438.09459,N,07404.10298,W,1,12,0.59,2595.2,M,4.7,M,,*55_
2,2,240,0,0,0.000000,-102,5_$GNGGA,190408.00,0438.09444,N,07404.10381,W,1,12,0.61,2596.9,M,4.7,M,,*5C_
2,2,240,0,0,0.000000,-102,5_$GNGGA,190325.00,0438.09413,N,07404.10343,W,1,12,0.59,2597.0,M,4.7,M,,*5B_
2,2,240,0,0,0.000000,-106,5_$GNGGA,190242.00,0438.09390,N,07404.10383,W,1,12,0.66,2598.4,M,4.7,M,,*5C_
2,2,240,0,0,0.000000,-104,5_$GNGGA,190158.00,0438.09377,N,07404.10386,W,1,12,0.61,2597.7,M,4.7,M,,*53_
2,2,240,0,0,0.000000,-103,5_$GNGGA,190114.00,0438.09365,N,07404.10474,W,1,12,0.65,2597.6,M,4.7,M,,*57_
2,2,240,0,0,0.000000,-104,5_$GNGGA,190031.00,0438.09370,N,07404.10445,W,1,12,0.61,2596.8,M,4.7,M,,*5C_
2,2,240,0,0,0.000000,-103,5_$GNGGA,185948.00,0438.09361,N,07404.10414,W,1,12,0.63,2596.3,M,4.7,M,,*52_
2,2,240,0,0,0.000000,-104,5_$GNGGA,185905.00,0438.09351,N,07404.10370,W,1,12,0.63,2595.3,M,4.7,M,,*5E_
2,2,240,0,0,0.000000,-104,5_$GNGGA,185821.00,0438.09340,N,07404.10329,W,1,12,0.58,2596.3,M,4.7,M,,*5E_
2,2,240,0,0,0.000000,-90,255_$GNGGA,185730.00,0438.09314,N,07404.10348,W,1,12,0.57,2599.6,M,4.7,M,,*52_
2,2,240,0,0,0.000000,-91,255_$GNGGA,185718.00,0438.09312,N,07404.10345,W,1,12,0.63,2600.1,M,4.7,M,,*50_
2,2,240,0,0,0.000000,-92,255_$GNGGA,185707.00,0438.09320,N,07404.10335,W,1,12,0.62,2599.9,M,4.7,M,,*52_
2,2,240,0,0,0.000000,-17,255_$GNGGA,185656.00,0438.09325,N,07404.10326,W,1,12,0.62,2600.1,M,4.7,M,,*5B_
2,2,240,0,0,0.000000,-91,255_$GNGGA,185645.00,0438.09326,N,07404.10324,W,1,12,0.62,2600.6,M,4.7,M,,*5F_
2,2,240,0,0,0.000000,-90,255_$GNGGA,185633.00,0438.09326,N,07404.10326,W,1,12,0.63,2600.8,M,4.7,M,,*53_
2,2,240,0,0,0.000000,-92,255_$GNGGA,185622.00,0438.09323,N,07404.10315,W,1,12,0.64,2601.0,M,4.7,M,,*58_
2,2,240,0,0,0.000000,-92,255_$GNGGA,185610.00,0438.09317,N,07404.10304,W,1,12,0.64,2601.6,M,4.7,M,,*58_
2,2,240,0,0,0.000000,-92,255_$GNGGA,185558.00,0438.09317,N,07404.10294,W,1,12,0.62,2602.2,M,4.7,M,,*5E_
2,2,240,0,0,0.000000,-94,255_$GNGGA,185547.00,0438.09311,N,07404.10284,W,1,12,0.63,2602.5,M,4.7,M,,*51_
2,2,240,0,0,0.000000,-91,255_$GNGGA,185536.00,0438.09308,N,07404.10278,W,1,12,0.62,2602.5,M,4.7,M,,*5D_
2,2,240,0,0,0.000000,-92,255_$GNGGA,185525.00,0438.09299,N,07404.10272,W,1,12,0.62,2602.7,M,4.7,M,,*5E_
2,2,240,0,0,0.000000,-92,255_$GNGGA,185513.00,0438.09282,N,07404.10257,W,1,12,0.62,2603.1,M,4.7,M,,*51_
2,2,240,0,0,0.000000,-91,255_$GNGGA,185501.00,0438.09276,N,07404.10234,W,1,12,0.63,2603.6,M,4.7,M,,*5A_
2,2,240,0,0,0.000000,-92,255_$GNGGA,185449.00,0438.09270,N,07404.10223,W,1,12,0.62,2604.1,M,4.7,M,,*56_
2,2,240,0,0,0.000000,-90,255_$GNGGA,185438.00,0438.09277,N,07404.10227,W,1,12,0.63,2604.0,M,4.7,M,,*53_
2,2,240,0,0,0.000000,-18,255_$GNGGA,185427.00,0438.09279,N,07404.10232,W,1,12,0.62,2603.9,M,4.7,M,,*58_
2,2,240,0,0,0.000000,-91,255_$GNGGA,185416.00,0438.09277,N,07404.10256,W,1,12,0.62,2603.7,M,4.7,M,,*58_
2,2,240,0,0,0.000000,-17,255_$GNGGA,185405.00,0438.09265,N,07404.10277,W,1,12,0.62,2603.2,M,4.7,M,,*5F_
2,2,240,0,0,0.000000,-17,255_$GNGGA,185348.00,0438.09256,N,07404.10276,W,1,12,0.62,2602.1,M,4.7,M,,*52_
2,2,240,0,0,0.000000,-90,255_$GNGGA,185337.00,0438.09258,N,07404.10277,W,1,12,0.62,2601.5,M,4.7,M,,*52_
2,2,240,0,0,0.000000,-92,255_$GNGGA,185325.00,0438.09263,N,07404.10279,W,1,12,0.62,2600.9,M,4.7,M,,*5A_
2,2,240,0,0,0.000000,-83,255_$GNGGA,185314.00,0438.09266,N,07404.10282,W,1,12,0.62,2600.5,M,4.7,M,,*55_
2,2,240,0,0,0.000000,-94,255_$GNGGA,185302.00,0438.09275,N,07404.10294,W,1,12,0.63,2600.2,M,4.7,M,,*51_
2,2,240,0,0,0.000000,-94,255_$GNGGA,185250.00,0438.09287,N,07404.10314,W,1,12,0.62,2599.6,M,4.7,M,,*55_
2,2,240,0,0,0.000000,-92,255_$GNGGA,185239.00,0438.09296,N,07404.10329,W,1,12,0.62,2599.1,M,4.7,M,,*53_
2,2,240,0,0,0.000000,-94,255_$GNGGA,185228.00,0438.09299,N,07404.10331,W,1,12,0.62,2598.8,M,4.7,M,,*5D_
2,2,240,0,0,0.000000,-94,255_$GNGGA,185217.00,0438.09297,N,07404.10323,W,1,12,0.62,2598.4,M,4.7,M,,*50_
2,2,240,0,0,0.000000,-92,255_$GNGGA,185205.00,0438.09286,N,07404.10306,W,1,12,0.64,2598.5,M,4.7,M,,*53_
2,2,240,0,0,0.000000,-17,255_$GNGGA,185153.00,0438.09277,N,07404.10297,W,1,12,0.62,2598.4,M,4.7,M,,*53_
2,2,240,0,0,0.000000,-88,255_$GNGGA,185141.00,0438.09272,N,07404.10289,W,1,12,0.65,2598.5,M,4.7,M,,*5C_
2,2,240,0,0,0.000000,-22,255_$GNGGA,185124.00,0438.09269,N,07404.10283,W,1,12,0.68,2598.7,M,4.7,M,,*50_
2,2,240,0,0,0.000000,-91,255_$GNGGA,185112.00,0438.09278,N,07404.10285,W,1,12,0.68,2598.4,M,4.7,M,,*50_
2,2,240,0,0,0.000000,-17,255_$GNGGA,185101.00,0438.09292,N,07404.10290,W,1,12,0.62,2598.0,M,4.7,M,,*5C_
2,2,240,0,0,0.000000,-91,255_$GNGGA,185049.00,0438.09305,N,07404.10299,W,1,12,0.62,2597.3,M,4.7,M,,*5B_
2,2,240,0,0,0.000000,-91,255_$GNGGA,185038.00,0438.09309,N,07404.10308,W,1,12,0.65,2597.1,M,4.7,M,,*5D_
2,2,240,0,0,0.000000,-91,255_$GNGGA,185027.00,0438.09310,N,07404.10293,W,1,12,0.65,2596.8,M,4.7,M,,*50_
2,2,240,0,0,0.000000,-91,255_$GNGGA,185016.00,0438.09297,N,07404.10268,W,1,12,0.68,2596.8,M,4.7,M,,*55_
2,2,240,0,0,0.000000,-91,255_$GNGGA,185004.00,0438.09289,N,07404.10252,W,1,12,0.68,2596.6,M,4.7,M,,*5E_
2,2,240,0,0,0.000000,-92,255_$GNGGA,184952.00,0438.09295,N,07404.10245,W,1,12,0.66,2596.3,M,4.7,M,,*55_
2,2,240,0,0,0.000000,-92,255_$GNGGA,184940.00,0438.09301,N,07404.10237,W,1,12,0.63,2596.2,M,4.7,M,,*5B_
2,2,240,0,0,0.000000,-91,255_$GNGGA,184929.00,0438.09305,N,07404.10222,W,1,12,0.65,2596.1,M,4.7,M,,*51_
2,2,240,0,0,0.000000,-90,255_$GNGGA,184918.00,0438.09309,N,07404.10209,W,1,12,0.62,2595.9,M,4.7,M,,*5A_
2,2,240,0,0,0.000000,-17,255_$GNGGA,184907.00,0438.09316,N,07404.10202,W,1,12,0.62,2595.8,M,4.7,M,,*50_
2,2,240,0,0,0.000000,-18,255_$GNGGA,184850.00,0438.09306,N,07404.10199,W,1,12,0.62,2596.5,M,4.7,M,,*5D_
2,2,240,0,0,0.000000,-91,255_$GNGGA,184839.00,0438.09278,N,07404.10201,W,1,12,0.62,2597.4,M,4.7,M,,*58_
2,2,240,0,0,0.000000,-92,255_$GNGGA,184828.00,0438.09248,N,07404.10212,W,1,12,0.62,2598.0,M,4.7,M,,*52_
2,2,240,0,0,0.000000,-18,255_$GNGGA,184816.00,0438.09228,N,07404.10221,W,1,12,0.62,2597.8,M,4.7,M,,*5E_
2,2,240,0,0,0.000000,-18,255_$GNGGA,184759.00,0438.09206,N,07404.10203,W,1,12,0.62,2598.1,M,4.7,M,,*50_
2,2,240,0,0,0.000000,-91,255_$GNGGA,184748.00,0438.09206,N,07404.10200,W,1,12,0.62,2598.5,M,4.7,M,,*57_
2,2,240,0,0,0.000000,-91,255_$GNGGA,184736.00,0438.09224,N,07404.10200,W,1,12,0.63,2598.7,M,4.7,M,,*5D_
2,2,240,0,0,0.000000,-89,255_$GNGGA,184724.00,0438.09243,N,07404.10175,W,1,12,0.63,2598.8,M,4.7,M,,*51_
2,2,240,0,0,0.000000,-92,255_$GNGGA,184712.00,0438.09254,N,07404.10148,W,1,12,0.62,2599.0,M,4.7,M,,*54_
